{
   "type": "FeatureCollection",
   "features": [
  {
    "type": "Feature",
    "geometry": {
       "type": "Point",
       "coordinates":  [ -18.07270050048828,65.66000366210938,6 ]
    },
    "properties": {
    "name":"Akureyri Airport",
    "city":"Akureyri",
    "country":"Iceland",
    "IATA":"AEY",
    "ICAO":"BIAR"
    }
  },
  {
    "type": "Feature",
    "geometry": {
       "type": "Point",
       "coordinates":  [ -14.401399612426758,65.2833023071289,76 ]
    },
    "properties": {
    "name":"Egilsstaðir Airport",
    "city":"Egilsstaðir",
    "country":"Iceland",
    "IATA":"EGS",
    "ICAO":"BIEG"
    }
  },
  {
    "type": "Feature",
    "geometry": {
       "type": "Point",
       "coordinates":  [ -15.2272,64.295601,24 ]
    },
    "properties": {
    "name":"Hornafjörður Airport",
    "city":"Höfn",
    "country":"Iceland",
    "IATA":"HFN",
    "ICAO":"BIHN"
    }
  },
  {
    "type": "Feature",
    "geometry": {
       "type": "Point",
       "coordinates":  [ -17.426001,65.952301,48 ]
    },
    "properties": {
    "name":"Húsavík Airport",
    "city":"Húsavík",
    "country":"Iceland",
    "IATA":"HZK",
    "ICAO":"BIHU"
    }
  },
  {
    "type": "Feature",
    "geometry": {
       "type": "Point",
       "coordinates":  [ -23.135299682617188,66.05809783935547,8 ]
    },
    "properties": {
    "name":"Ísafjörður Airport",
    "city":"Ísafjörður",
    "country":"Iceland",
    "IATA":"IFJ",
    "ICAO":"BIIS"
    }
  },
  {
    "type": "Feature",
    "geometry": {
       "type": "Point",
       "coordinates":  [ -22.605600357056,63.985000610352,171 ]
    },
    "properties": {
    "name":"Keflavik International Airport",
    "city":"Keflavik",
    "country":"Iceland",
    "IATA":"KEF",
    "ICAO":"BIKF"
    }
  },
  {
    "type": "Feature",
    "geometry": {
       "type": "Point",
       "coordinates":  [ -23.965,65.555801,11 ]
    },
    "properties": {
    "name":"Patreksfjörður Airport",
    "city":"Patreksfjörður",
    "country":"Iceland",
    "IATA":"PFJ",
    "ICAO":"BIPA"
    }
  },
  {
    "type": "Feature",
    "geometry": {
       "type": "Point",
       "coordinates":  [ -21.9405994415,64.1299972534,48 ]
    },
    "properties": {
    "name":"Reykjavik Airport",
    "city":"Reykjavik",
    "country":"Iceland",
    "IATA":"RKV",
    "ICAO":"BIRK"
    }
  },
  {
    "type": "Feature",
    "geometry": {
       "type": "Point",
       "coordinates":  [ -18.9167,66.133301,10 ]
    },
    "properties": {
    "name":"Siglufjörður Airport",
    "city":"Siglufjörður",
    "country":"Iceland",
    "IATA":"SIJ",
    "ICAO":"BISI"
    }
  },
  {
    "type": "Feature",
    "geometry": {
       "type": "Point",
       "coordinates":  [ -20.27890014648437,63.42430114746094,326 ]
    },
    "properties": {
    "name":"Vestmannaeyjar Airport",
    "city":"Vestmannaeyjar",
    "country":"Iceland",
    "IATA":"VEY",
    "ICAO":"BIVM"
    }
  },
  {
    "type": "Feature",
    "geometry": {
       "type": "Point",
       "coordinates":  [ 4.46027994156,51.1893997192,39 ]
    },
    "properties": {
    "name":"Antwerp International Airport (Deurne)",
    "city":"Antwerp",
    "country":"Belgium",
    "IATA":"ANR",
    "ICAO":"EBAW"
    }
  },
  {
    "type": "Feature",
    "geometry": {
       "type": "Point",
       "coordinates":  [ 4.768330097198486,50.75859832763672,370 ]
    },
    "properties": {
    "name":"Beauvechain Air Base",
    "city":"Beauvechain",
    "country":"Belgium",
    "IATA":"N/A",
    "ICAO":"EBBE"
    }
  },
  {
    "type": "Feature",
    "geometry": {
       "type": "Point",
       "coordinates":  [ 5.47,51.168301,200 ]
    },
    "properties": {
    "name":"Kleine Brogel Air Base",
    "city":"Kleine Brogel",
    "country":"Belgium",
    "IATA":"N/A",
    "ICAO":"EBBL"
    }
  },
  {
    "type": "Feature",
    "geometry": {
       "type": "Point",
       "coordinates":  [ 4.48443984985,50.9014015198,184 ]
    },
    "properties": {
    "name":"Brussels Airport",
    "city":"Brussels",
    "country":"Belgium",
    "IATA":"BRU",
    "ICAO":"EBBR"
    }
  },
  {
    "type": "Feature",
    "geometry": {
       "type": "Point",
       "coordinates":  [ 5.223889827728272,49.891700744628906,1514 ]
    },
    "properties": {
    "name":"Jehonville Air Base",
    "city":"Bertrix",
    "country":"Belgium",
    "IATA":"N/A",
    "ICAO":"EBBX"
    }
  },
  {
    "type": "Feature",
    "geometry": {
       "type": "Point",
       "coordinates":  [ 4.45382,50.459202,614 ]
    },
    "properties": {
    "name":"Brussels South Charleroi Airport",
    "city":"Charleroi",
    "country":"Belgium",
    "IATA":"CRL",
    "ICAO":"EBCI"
    }
  },
  {
    "type": "Feature",
    "geometry": {
       "type": "Point",
       "coordinates":  [ 3.8310000896453857,50.575801849365234,194 ]
    },
    "properties": {
    "name":"Chièvres Air Base",
    "city":"Chièvres",
    "country":"Belgium",
    "IATA":"N/A",
    "ICAO":"EBCV"
    }
  },
  {
    "type": "Feature",
    "geometry": {
       "type": "Point",
       "coordinates":  [ 2.652780055999756,51.09030151367188,20 ]
    },
    "properties": {
    "name":"Koksijde Air Base",
    "city":"Koksijde",
    "country":"Belgium",
    "IATA":"N/A",
    "ICAO":"EBFN"
    }
  },
  {
    "type": "Feature",
    "geometry": {
       "type": "Point",
       "coordinates":  [ 4.64583015442,50.2433013916,935 ]
    },
    "properties": {
    "name":"Florennes Air Base",
    "city":"Florennes",
    "country":"Belgium",
    "IATA":"N/A",
    "ICAO":"EBFS"
    }
  },
  {
    "type": "Feature",
    "geometry": {
       "type": "Point",
       "coordinates":  [ 3.20472002029,50.817199707,64 ]
    },
    "properties": {
    "name":"Wevelgem Airport",
    "city":"Kortrijk-vevelgem",
    "country":"Belgium",
    "IATA":"KJK",
    "ICAO":"EBKT"
    }
  },
  {
    "type": "Feature",
    "geometry": {
       "type": "Point",
       "coordinates":  [ 5.443220138549805,50.63740158081055,659 ]
    },
    "properties": {
    "name":"Liège Airport",
    "city":"Liège",
    "country":"Belgium",
    "IATA":"LGG",
    "ICAO":"EBLG"
    }
  },
  {
    "type": "Feature",
    "geometry": {
       "type": "Point",
       "coordinates":  [ 2.8622200489,51.1988983154,13 ]
    },
    "properties": {
    "name":"Ostend-Bruges International Airport",
    "city":"Ostend",
    "country":"Belgium",
    "IATA":"OST",
    "ICAO":"EBOS"
    }
  },
  {
    "type": "Feature",
    "geometry": {
       "type": "Point",
       "coordinates":  [ 5.590559959411621,50.9474983215332,312 ]
    },
    "properties": {
    "name":"Zutendaal Air Base",
    "city":"Zutendaal",
    "country":"Belgium",
    "IATA":"N/A",
    "ICAO":"EBSL"
    }
  },
  {
    "type": "Feature",
    "geometry": {
       "type": "Point",
       "coordinates":  [ 5.20167,50.791901,246 ]
    },
    "properties": {
    "name":"Brustem Airfield Sint Truiden",
    "city":"Sint-truiden",
    "country":"Belgium",
    "IATA":"N/A",
    "ICAO":"EBST"
    }
  },
  {
    "type": "Feature",
    "geometry": {
       "type": "Point",
       "coordinates":  [ 5.440810203552246,50.034400939941406,1930 ]
    },
    "properties": {
    "name":"Saint Hubert Air Base",
    "city":"St.-hubert",
    "country":"Belgium",
    "IATA":"N/A",
    "ICAO":"EBSU"
    }
  },
  {
    "type": "Feature",
    "geometry": {
       "type": "Point",
       "coordinates":  [ 3.475559949874878,51.14419937133789,95 ]
    },
    "properties": {
    "name":"Ursel Air Base",
    "city":"Ursel",
    "country":"Belgium",
    "IATA":"N/A",
    "ICAO":"EBUL"
    }
  },
  {
    "type": "Feature",
    "geometry": {
       "type": "Point",
       "coordinates":  [ 4.9601898193359375,51.394798278808594,105 ]
    },
    "properties": {
    "name":"Weelde Air Base",
    "city":"Weelde",
    "country":"Belgium",
    "IATA":"N/A",
    "ICAO":"EBWE"
    }
  },
  {
    "type": "Feature",
    "geometry": {
       "type": "Point",
       "coordinates":  [ 4.75333,51.264702,53 ]
    },
    "properties": {
    "name":"Zoersel (Oostmalle) Airfield",
    "city":"Zoersel",
    "country":"Belgium",
    "IATA":"OBL",
    "ICAO":"EBZR"
    }
  },
  {
    "type": "Feature",
    "geometry": {
       "type": "Point",
       "coordinates":  [ 14.519722,51.193611,568 ]
    },
    "properties": {
    "name":"Flugplatz Bautzen",
    "city":"Bautzen",
    "country":"Germany",
    "IATA":"N/A",
    "ICAO":"EDAB"
    }
  },
  {
    "type": "Feature",
    "geometry": {
       "type": "Point",
       "coordinates":  [ 12.506389,50.981945,640 ]
    },
    "properties": {
    "name":"Altenburg-Nobitz Airport",
    "city":"Altenburg",
    "country":"Germany",
    "IATA":"AOC",
    "ICAO":"EDAC"
    }
  },
  {
    "type": "Feature",
    "geometry": {
       "type": "Point",
       "coordinates":  [ 12.190962,51.831694,187 ]
    },
    "properties": {
    "name":"Dessau Airfield",
    "city":"Dessau",
    "country":"Germany",
    "IATA":"N/A",
    "ICAO":"EDAD"
    }
  },
  {
    "type": "Feature",
    "geometry": {
       "type": "Point",
       "coordinates":  [ 14.58753,52.195856,144 ]
    },
    "properties": {
    "name":"Eisenhüttenstadt Airfield",
    "city":"Eisenhüttenstadt",
    "country":"Germany",
    "IATA":"N/A",
    "ICAO":"EDAE"
    }
  },
  {
    "type": "Feature",
    "geometry": {
       "type": "Point",
       "coordinates":  [ 13.555556297302246,51.30805587768555,417 ]
    },
    "properties": {
    "name":"Großenhain Airport",
    "city":"Suhl",
    "country":"Germany",
    "IATA":"N/A",
    "ICAO":"EDAK"
    }
  },
  {
    "type": "Feature",
    "geometry": {
       "type": "Point",
       "coordinates":  [ 11.9408333,51.3630556,341 ]
    },
    "properties": {
    "name":"Merseburg Airport",
    "city":"Mühlhausen",
    "country":"Germany",
    "IATA":"N/A",
    "ICAO":"EDAM"
    }
  },
  {
    "type": "Feature",
    "geometry": {
       "type": "Point",
       "coordinates":  [ 12.053889,51.552223,348 ]
    },
    "properties": {
    "name":"Halle-Oppin Airport",
    "city":"Halle",
    "country":"Germany",
    "IATA":"N/A",
    "ICAO":"EDAQ"
    }
  },
  {
    "type": "Feature",
    "geometry": {
       "type": "Point",
       "coordinates":  [ 13.3561105728,51.2936096191,322 ]
    },
    "properties": {
    "name":"Riesa-Göhlis Airport",
    "city":"Riesa",
    "country":"Germany",
    "IATA":"IES",
    "ICAO":"EDAU"
    }
  },
  {
    "type": "Feature",
    "geometry": {
       "type": "Point",
       "coordinates":  [ 12.7522220612,53.306388855,220 ]
    },
    "properties": {
    "name":"Rechlin-Lärz Airport",
    "city":"Rechlin-Lärz",
    "country":"Germany",
    "IATA":"REB",
    "ICAO":"EDAX"
    }
  },
  {
    "type": "Feature",
    "geometry": {
       "type": "Point",
       "coordinates":  [ 13.916666984558104,52.5805549621582,262 ]
    },
    "properties": {
    "name":"Strausberg Airport",
    "city":"Strausberg",
    "country":"Germany",
    "IATA":"N/A",
    "ICAO":"EDAY"
    }
  },
  {
    "type": "Feature",
    "geometry": {
       "type": "Point",
       "coordinates":  [ 13.156389,52.203609,152 ]
    },
    "properties": {
    "name":"Schönhagen Airport",
    "city":"Schoenhagen",
    "country":"Germany",
    "IATA":"QXH",
    "ICAO":"EDAZ"
    }
  },
  {
    "type": "Feature",
    "geometry": {
       "type": "Point",
       "coordinates":  [ 12.710515,54.338253,23 ]
    },
    "properties": {
    "name":"Barth Airport",
    "city":"Barth",
    "country":"Germany",
    "IATA":"BBH",
    "ICAO":"EDBH"
    }
  },
  {
    "type": "Feature",
    "geometry": {
       "type": "Point",
       "coordinates":  [ 11.714444,50.915279,1247 ]
    },
    "properties": {
    "name":"Jena-Schöngleina Airfield",
    "city":"Jena",
    "country":"Germany",
    "IATA":"N/A",
    "ICAO":"EDBJ"
    }
  },
  {
    "type": "Feature",
    "geometry": {
       "type": "Point",
       "coordinates":  [ 12.425277709960938,52.918888092041016,131 ]
    },
    "properties": {
    "name":"Kyritz Airport",
    "city":"Kyritz",
    "country":"Germany",
    "IATA":"N/A",
    "ICAO":"EDBK"
    }
  },
  {
    "type": "Feature",
    "geometry": {
       "type": "Point",
       "coordinates":  [ 11.626389,52.073612,259 ]
    },
    "properties": {
    "name":"Magdeburg \"City\" Airport",
    "city":"Magdeburg",
    "country":"Germany",
    "IATA":"ZMG",
    "ICAO":"EDBM"
    }
  },
  {
    "type": "Feature",
    "geometry": {
       "type": "Point",
       "coordinates":  [ 14.949999809265137,51.36333465576172,518 ]
    },
    "properties": {
    "name":"Rothenburg/Görlitz Airport",
    "city":"Rothenburg/ol",
    "country":"Germany",
    "IATA":"N/A",
    "ICAO":"EDBR"
    }
  },
  {
    "type": "Feature",
    "geometry": {
       "type": "Point",
       "coordinates":  [ 13.668611,53.832779,16 ]
    },
    "properties": {
    "name":"Anklam Airfield",
    "city":"Anklam",
    "country":"Germany",
    "IATA":"N/A",
    "ICAO":"EDCA"
    }
  },
  {
    "type": "Feature",
    "geometry": {
       "type": "Point",
       "coordinates":  [ 14.531944,51.889442,272 ]
    },
    "properties": {
    "name":"Cottbus-Drewitz Airport",
    "city":"Cottbus",
    "country":"Germany",
    "IATA":"CBU",
    "ICAO":"EDCD"
    }
  },
  {
    "type": "Feature",
    "geometry": {
       "type": "Point",
       "coordinates":  [ 14.1274995803833,51.29694366455078,495 ]
    },
    "properties": {
    "name":"Kamenz Airport",
    "city":"Kamenz",
    "country":"Germany",
    "IATA":"N/A",
    "ICAO":"EDCM"
    }
  },
  {
    "type": "Feature",
    "geometry": {
       "type": "Point",
       "coordinates":  [ 13.5225,52.380001,157 ]
    },
    "properties": {
    "name":"Berlin-Schönefeld Airport",
    "city":"Berlin",
    "country":"Germany",
    "IATA":"SXF",
    "ICAO":"EDDB"
    }
  },
  {
    "type": "Feature",
    "geometry": {
       "type": "Point",
       "coordinates":  [ 13.767200469970703,51.1328010559082,755 ]
    },
    "properties": {
    "name":"Dresden Airport",
    "city":"Dresden",
    "country":"Germany",
    "IATA":"DRS",
    "ICAO":"EDDC"
    }
  },
  {
    "type": "Feature",
    "geometry": {
       "type": "Point",
       "coordinates":  [ 10.958100318908691,50.97980117797852,1036 ]
    },
    "properties": {
    "name":"Erfurt Airport",
    "city":"Erfurt",
    "country":"Germany",
    "IATA":"ERF",
    "ICAO":"EDDE"
    }
  },
  {
    "type": "Feature",
    "geometry": {
       "type": "Point",
       "coordinates":  [ 8.570556,50.033333,364 ]
    },
    "properties": {
    "name":"Frankfurt am Main Airport",
    "city":"Frankfurt",
    "country":"Germany",
    "IATA":"FRA",
    "ICAO":"EDDF"
    }
  },
  {
    "type": "Feature",
    "geometry": {
       "type": "Point",
       "coordinates":  [ 7.68483018875,52.134601593,160 ]
    },
    "properties": {
    "name":"Münster Osnabrück Airport",
    "city":"Münster",
    "country":"Germany",
    "IATA":"FMO",
    "ICAO":"EDDG"
    }
  },
  {
    "type": "Feature",
    "geometry": {
       "type": "Point",
       "coordinates":  [ 9.9882297515869,53.630401611328,53 ]
    },
    "properties": {
    "name":"Hamburg Airport",
    "city":"Hamburg",
    "country":"Germany",
    "IATA":"HAM",
    "ICAO":"EDDH"
    }
  },
  {
    "type": "Feature",
    "geometry": {
       "type": "Point",
       "coordinates":  [ 13.403900146484377,52.47299957275391,167 ]
    },
    "properties": {
    "name":"Berlin-Tempelhof International Airport",
    "city":"Berlin",
    "country":"Germany",
    "IATA":"THF",
    "ICAO":"EDDI"
    }
  },
  {
    "type": "Feature",
    "geometry": {
       "type": "Point",
       "coordinates":  [ 7.1427397728,50.8658981323,302 ]
    },
    "properties": {
    "name":"Cologne Bonn Airport",
    "city":"Cologne",
    "country":"Germany",
    "IATA":"CGN",
    "ICAO":"EDDK"
    }
  },
  {
    "type": "Feature",
    "geometry": {
       "type": "Point",
       "coordinates":  [ 6.76678,51.289501,147 ]
    },
    "properties": {
    "name":"Düsseldorf Airport",
    "city":"Düsseldorf",
    "country":"Germany",
    "IATA":"DUS",
    "ICAO":"EDDL"
    }
  },
  {
    "type": "Feature",
    "geometry": {
       "type": "Point",
       "coordinates":  [ 11.7861,48.353802,1487 ]
    },
    "properties": {
    "name":"Munich Airport",
    "city":"Munich",
    "country":"Germany",
    "IATA":"MUC",
    "ICAO":"EDDM"
    }
  },
  {
    "type": "Feature",
    "geometry": {
       "type": "Point",
       "coordinates":  [ 11.078056,49.498699,1046 ]
    },
    "properties": {
    "name":"Nuremberg Airport",
    "city":"Nuremberg",
    "country":"Germany",
    "IATA":"NUE",
    "ICAO":"EDDN"
    }
  },
  {
    "type": "Feature",
    "geometry": {
       "type": "Point",
       "coordinates":  [ 12.236389,51.423889,465 ]
    },
    "properties": {
    "name":"Leipzig/Halle Airport",
    "city":"Leipzig",
    "country":"Germany",
    "IATA":"LEJ",
    "ICAO":"EDDP"
    }
  },
  {
    "type": "Feature",
    "geometry": {
       "type": "Point",
       "coordinates":  [ 7.10950994492,49.2145996094,1058 ]
    },
    "properties": {
    "name":"Saarbrücken Airport",
    "city":"Saarbrücken",
    "country":"Germany",
    "IATA":"SCN",
    "ICAO":"EDDR"
    }
  },
  {
    "type": "Feature",
    "geometry": {
       "type": "Point",
       "coordinates":  [ 9.22196006775,48.6898994446,1276 ]
    },
    "properties": {
    "name":"Stuttgart Airport",
    "city":"Stuttgart",
    "country":"Germany",
    "IATA":"STR",
    "ICAO":"EDDS"
    }
  },
  {
    "type": "Feature",
    "geometry": {
       "type": "Point",
       "coordinates":  [ 13.2877,52.5597,122 ]
    },
    "properties": {
    "name":"Berlin-Tegel Airport",
    "city":"Berlin",
    "country":"Germany",
    "IATA":"TXL",
    "ICAO":"EDDT"
    }
  },
  {
    "type": "Feature",
    "geometry": {
       "type": "Point",
       "coordinates":  [ 9.68507957458,52.461101532,183 ]
    },
    "properties": {
    "name":"Hannover Airport",
    "city":"Hannover",
    "country":"Germany",
    "IATA":"HAJ",
    "ICAO":"EDDV"
    }
  },
  {
    "type": "Feature",
    "geometry": {
       "type": "Point",
       "coordinates":  [ 8.78666973114,53.0475006104,14 ]
    },
    "properties": {
    "name":"Bremen Airport",
    "city":"Bremen",
    "country":"Germany",
    "IATA":"BRE",
    "ICAO":"EDDW"
    }
  },
  {
    "type": "Feature",
    "geometry": {
       "type": "Point",
       "coordinates":  [ 8.645833,49.959999,384 ]
    },
    "properties": {
    "name":"Frankfurt-Egelsbach Airport",
    "city":"Egelsbach",
    "country":"Germany",
    "IATA":"QEF",
    "ICAO":"EDFE"
    }
  },
  {
    "type": "Feature",
    "geometry": {
       "type": "Point",
       "coordinates":  [ 7.26389,49.9487,1649 ]
    },
    "properties": {
    "name":"Frankfurt-Hahn Airport",
    "city":"Hahn",
    "country":"Germany",
    "IATA":"HHN",
    "ICAO":"EDFH"
    }
  },
  {
    "type": "Feature",
    "geometry": {
       "type": "Point",
       "coordinates":  [ 8.514167,49.473057,308 ]
    },
    "properties": {
    "name":"Mannheim-City Airport",
    "city":"Mannheim",
    "country":"Germany",
    "IATA":"MHG",
    "ICAO":"EDFM"
    }
  },
  {
    "type": "Feature",
    "geometry": {
       "type": "Point",
       "coordinates":  [ 8.680832862854004,51.03499984741211,1158 ]
    },
    "properties": {
    "name":"Allendorf/Eder Airport",
    "city":"Allendorf",
    "country":"Germany",
    "IATA":"N/A",
    "ICAO":"EDFQ"
    }
  },
  {
    "type": "Feature",
    "geometry": {
       "type": "Point",
       "coordinates":  [ 8.368333,49.606945,295 ]
    },
    "properties": {
    "name":"Worms Airport",
    "city":"Worms",
    "country":"Germany",
    "IATA":"N/A",
    "ICAO":"EDFV"
    }
  },
  {
    "type": "Feature",
    "geometry": {
       "type": "Point",
       "coordinates":  [ 8.147222,49.967499,525 ]
    },
    "properties": {
    "name":"Mainz-Finthen Airport",
    "city":"Mainz",
    "country":"Germany",
    "IATA":"N/A",
    "ICAO":"EDFZ"
    }
  },
  {
    "type": "Feature",
    "geometry": {
       "type": "Point",
       "coordinates":  [ 10.47973,50.991604,1112 ]
    },
    "properties": {
    "name":"Eisenach-Kindel Airport",
    "city":"Eisenach",
    "country":"Germany",
    "IATA":"EIB",
    "ICAO":"EDGE"
    }
  },
  {
    "type": "Feature",
    "geometry": {
       "type": "Point",
       "coordinates":  [ 8.082969665527344,50.70769882202149,1966 ]
    },
    "properties": {
    "name":"Siegerland Airport",
    "city":"Siegerland",
    "country":"Germany",
    "IATA":"SGE",
    "ICAO":"EDGS"
    }
  },
  {
    "type": "Feature",
    "geometry": {
       "type": "Point",
       "coordinates":  [ 9.835556030273438,53.5352783203125,23 ]
    },
    "properties": {
    "name":"Hamburg-Finkenwerder Airport",
    "city":"Hamburg",
    "country":"Germany",
    "IATA":"XFW",
    "ICAO":"EDHI"
    }
  },
  {
    "type": "Feature",
    "geometry": {
       "type": "Point",
       "coordinates":  [ 10.145277976989746,54.37944412231445,102 ]
    },
    "properties": {
    "name":"Kiel-Holtenau Airport",
    "city":"Kiel",
    "country":"Germany",
    "IATA":"KEL",
    "ICAO":"EDHK"
    }
  },
  {
    "type": "Feature",
    "geometry": {
       "type": "Point",
       "coordinates":  [ 10.7192001343,53.8054008484,53 ]
    },
    "properties": {
    "name":"Lübeck Blankensee Airport",
    "city":"Lübeck",
    "country":"Germany",
    "IATA":"LBC",
    "ICAO":"EDHL"
    }
  },
  {
    "type": "Feature",
    "geometry": {
       "type": "Point",
       "coordinates":  [ 6.5288891792,50.405555725,1896 ]
    },
    "properties": {
    "name":"Flugplatz Dahlemer Binz",
    "city":"Dahlemer Binz",
    "country":"Germany",
    "IATA":"N/A",
    "ICAO":"EDKV"
    }
  },
  {
    "type": "Feature",
    "geometry": {
       "type": "Point",
       "coordinates":  [ 7.599999904632568,51.09999847412109,1549 ]
    },
    "properties": {
    "name":"Meinerzhagen Airport",
    "city":"Meinerzhagen",
    "country":"Germany",
    "IATA":"N/A",
    "ICAO":"EDKZ"
    }
  },
  {
    "type": "Feature",
    "geometry": {
       "type": "Point",
       "coordinates":  [ 7.8983330726623535,51.48389053344727,794 ]
    },
    "properties": {
    "name":"Arnsberg-Menden Airport",
    "city":"Arnsberg",
    "country":"Germany",
    "IATA":"N/A",
    "ICAO":"EDLA"
    }
  },
  {
    "type": "Feature",
    "geometry": {
       "type": "Point",
       "coordinates":  [ 6.9373297691345215,51.40230178833008,424 ]
    },
    "properties": {
    "name":"Essen Mulheim Airport",
    "city":"Essen",
    "country":"Germany",
    "IATA":"ESS",
    "ICAO":"EDLE"
    }
  },
  {
    "type": "Feature",
    "geometry": {
       "type": "Point",
       "coordinates":  [ 8.544444,51.964722,454 ]
    },
    "properties": {
    "name":"Bielefeld Airport",
    "city":"Bielefeld",
    "country":"Germany",
    "IATA":"BFE",
    "ICAO":"EDLI"
    }
  },
  {
    "type": "Feature",
    "geometry": {
       "type": "Point",
       "coordinates":  [ 6.504444,51.230278,125 ]
    },
    "properties": {
    "name":"Mönchengladbach Airport",
    "city":"Moenchengladbach",
    "country":"Germany",
    "IATA":"MGL",
    "ICAO":"EDLN"
    }
  },
  {
    "type": "Feature",
    "geometry": {
       "type": "Point",
       "coordinates":  [ 8.616319656369999,51.6141014099,699 ]
    },
    "properties": {
    "name":"Paderborn Lippstadt Airport",
    "city":"Paderborn",
    "country":"Germany",
    "IATA":"PAD",
    "ICAO":"EDLP"
    }
  },
  {
    "type": "Feature",
    "geometry": {
       "type": "Point",
       "coordinates":  [ 6.840556144714356,51.99583435058594,157 ]
    },
    "properties": {
    "name":"Stadtlohn-Vreden Airport",
    "city":"Stadtlohn",
    "country":"Germany",
    "IATA":"N/A",
    "ICAO":"EDLS"
    }
  },
  {
    "type": "Feature",
    "geometry": {
       "type": "Point",
       "coordinates":  [ 7.61223983765,51.51829910279999,425 ]
    },
    "properties": {
    "name":"Dortmund Airport",
    "city":"Dortmund",
    "country":"Germany",
    "IATA":"DTM",
    "ICAO":"EDLW"
    }
  },
  {
    "type": "Feature",
    "geometry": {
       "type": "Point",
       "coordinates":  [ 10.931667,48.425278,1516 ]
    },
    "properties": {
    "name":"Augsburg Airport",
    "city":"Augsburg",
    "country":"Germany",
    "IATA":"AGB",
    "ICAO":"EDMA"
    }
  },
  {
    "type": "Feature",
    "geometry": {
       "type": "Point",
       "coordinates":  [ 9.762778,48.111111,1903 ]
    },
    "properties": {
    "name":"Biberach a.d. Riß Airfield",
    "city":"Biberach",
    "country":"Germany",
    "IATA":"N/A",
    "ICAO":"EDMB"
    }
  },
  {
    "type": "Feature",
    "geometry": {
       "type": "Point",
       "coordinates":  [ 12.723610877990724,48.39611053466797,1342 ]
    },
    "properties": {
    "name":"Eggenfelden Airport",
    "city":"Eggenfelden",
    "country":"Germany",
    "IATA":"N/A",
    "ICAO":"EDME"
    }
  },
  {
    "type": "Feature",
    "geometry": {
       "type": "Point",
       "coordinates":  [ 10.525,48.106945,1857 ]
    },
    "properties": {
    "name":"Mindelheim-Mattsies Airfield",
    "city":"Mindelheim",
    "country":"Germany",
    "IATA":"N/A",
    "ICAO":"EDMN"
    }
  },
  {
    "type": "Feature",
    "geometry": {
       "type": "Point",
       "coordinates":  [ 11.2831,48.081402,1947 ]
    },
    "properties": {
    "name":"Oberpfaffenhofen Airport",
    "city":"Oberpfaffenhofen",
    "country":"Germany",
    "IATA":"OBF",
    "ICAO":"EDMO"
    }
  },
  {
    "type": "Feature",
    "geometry": {
       "type": "Point",
       "coordinates":  [ 12.516667366027832,48.90083312988281,1047 ]
    },
    "properties": {
    "name":"Straubing Airport",
    "city":"Straubing",
    "country":"Germany",
    "IATA":"RBM",
    "ICAO":"EDMS"
    }
  },
  {
    "type": "Feature",
    "geometry": {
       "type": "Point",
       "coordinates":  [ 13.195555686950684,48.6349983215332,991 ]
    },
    "properties": {
    "name":"Vilshofen Airport",
    "city":"Vilshofen",
    "country":"Germany",
    "IATA":"N/A",
    "ICAO":"EDMV"
    }
  },
  {
    "type": "Feature",
    "geometry": {
       "type": "Point",
       "coordinates":  [ 10.014166831970217,47.85889053344727,2100 ]
    },
    "properties": {
    "name":"Leutkirch-Unterzeil Airport",
    "city":"Leutkirch",
    "country":"Germany",
    "IATA":"N/A",
    "ICAO":"EDNL"
    }
  },
  {
    "type": "Feature",
    "geometry": {
       "type": "Point",
       "coordinates":  [ 9.51148986816,47.6712989807,1367 ]
    },
    "properties": {
    "name":"Friedrichshafen Airport",
    "city":"Friedrichshafen",
    "country":"Germany",
    "IATA":"FDH",
    "ICAO":"EDNY"
    }
  },
  {
    "type": "Feature",
    "geometry": {
       "type": "Point",
       "coordinates":  [ 11.7834,53.426998,166 ]
    },
    "properties": {
    "name":"Schwerin Parchim Airport",
    "city":"Parchim",
    "country":"Germany",
    "IATA":"SZW",
    "ICAO":"EDOP"
    }
  },
  {
    "type": "Feature",
    "geometry": {
       "type": "Point",
       "coordinates":  [ 11.818611145019531,52.62888717651367,184 ]
    },
    "properties": {
    "name":"Stendal-Borstel Airport",
    "city":"Stendal",
    "country":"Germany",
    "IATA":"N/A",
    "ICAO":"EDOV"
    }
  },
  {
    "type": "Feature",
    "geometry": {
       "type": "Point",
       "coordinates":  [ 10.264721870422363,48.77777862548828,1916 ]
    },
    "properties": {
    "name":"Aalen-Heidenheim/Elchingen Airport",
    "city":"Aalen-heidenheim",
    "country":"Germany",
    "IATA":"N/A",
    "ICAO":"EDPA"
    }
  },
  {
    "type": "Feature",
    "geometry": {
       "type": "Point",
       "coordinates":  [ 11.64,49.985001,1601 ]
    },
    "properties": {
    "name":"Bayreuth Airport",
    "city":"Bayreuth",
    "country":"Germany",
    "IATA":"BYU",
    "ICAO":"EDQD"
    }
  },
  {
    "type": "Feature",
    "geometry": {
       "type": "Point",
       "coordinates":  [ 11.133610725403,49.794166564941,1673 ]
    },
    "properties": {
    "name":"Burg Feuerstein Airport",
    "city":"Burg Feuerstein",
    "country":"Germany",
    "IATA":"URD",
    "ICAO":"EDQE"
    }
  },
  {
    "type": "Feature",
    "geometry": {
       "type": "Point",
       "coordinates":  [ 11.856389045715332,50.288612365722656,1959 ]
    },
    "properties": {
    "name":"Hof-Plauen Airport",
    "city":"Hof",
    "country":"Germany",
    "IATA":"HOQ",
    "ICAO":"EDQM"
    }
  },
  {
    "type": "Feature",
    "geometry": {
       "type": "Point",
       "coordinates":  [ 10.529443740844728,50.0180549621582,719 ]
    },
    "properties": {
    "name":"Haßfurt-Schweinfurt Airport",
    "city":"Hassfurt",
    "country":"Germany",
    "IATA":"N/A",
    "ICAO":"EDQT"
    }
  },
  {
    "type": "Feature",
    "geometry": {
       "type": "Point",
       "coordinates":  [ 7.528611,50.325558,640 ]
    },
    "properties": {
    "name":"Koblenz-Winningen Airfield",
    "city":"Koblenz",
    "country":"Germany",
    "IATA":"N/A",
    "ICAO":"EDRK"
    }
  },
  {
    "type": "Feature",
    "geometry": {
       "type": "Point",
       "coordinates":  [ 6.7875,49.863888,666 ]
    },
    "properties": {
    "name":"Trier-Föhren Airport",
    "city":"Trier",
    "country":"Germany",
    "IATA":"N/A",
    "ICAO":"EDRT"
    }
  },
  {
    "type": "Feature",
    "geometry": {
       "type": "Point",
       "coordinates":  [ 8.451389,49.304722,312 ]
    },
    "properties": {
    "name":"Speyer Airfield",
    "city":"Speyer",
    "country":"Germany",
    "IATA":"N/A",
    "ICAO":"EDRY"
    }
  },
  {
    "type": "Feature",
    "geometry": {
       "type": "Point",
       "coordinates":  [ 7.40056,49.2094,1132 ]
    },
    "properties": {
    "name":"Zweibrücken Airport",
    "city":"Zweibrücken",
    "country":"Germany",
    "IATA":"ZQW",
    "ICAO":"EDRZ"
    }
  },
  {
    "type": "Feature",
    "geometry": {
       "type": "Point",
       "coordinates":  [ 8.52222156525,47.97333145139999,2231 ]
    },
    "properties": {
    "name":"Donaueschingen-Villingen Airport",
    "city":"Donaueschingen",
    "country":"Germany",
    "IATA":"ZQL",
    "ICAO":"EDTD"
    }
  },
  {
    "type": "Feature",
    "geometry": {
       "type": "Point",
       "coordinates":  [ 7.83249998093,48.022777557400005,801 ]
    },
    "properties": {
    "name":"Freiburg i. Br. Airport",
    "city":"Freiburg",
    "country":"Germany",
    "IATA":"N/A",
    "ICAO":"EDTF"
    }
  },
  {
    "type": "Feature",
    "geometry": {
       "type": "Point",
       "coordinates":  [ 9.372777938842772,48.05389022827149,1818 ]
    },
    "properties": {
    "name":"Mengen-Hohentengen Airport",
    "city":"Mengen",
    "country":"Germany",
    "IATA":"N/A",
    "ICAO":"EDTM"
    }
  },
  {
    "type": "Feature",
    "geometry": {
       "type": "Point",
       "coordinates":  [ 9.783888816829998,49.1183319092,1299 ]
    },
    "properties": {
    "name":"Adolf Würth Airport",
    "city":"Schwäbisch Hall",
    "country":"Germany",
    "IATA":"N/A",
    "ICAO":"EDTY"
    }
  },
  {
    "type": "Feature",
    "geometry": {
       "type": "Point",
       "coordinates":  [ 13.743611,51.607498,384 ]
    },
    "properties": {
    "name":"Finsterwalde/Schacksdorf Airport",
    "city":"Soest",
    "country":"Germany",
    "IATA":"N/A",
    "ICAO":"EDUS"
    }
  },
  {
    "type": "Feature",
    "geometry": {
       "type": "Point",
       "coordinates":  [ 10.5561,52.319199,295 ]
    },
    "properties": {
    "name":"Braunschweig-Wolfsburg Airport",
    "city":"Braunschweig",
    "country":"Germany",
    "IATA":"BWE",
    "ICAO":"EDVE"
    }
  },
  {
    "type": "Feature",
    "geometry": {
       "type": "Point",
       "coordinates":  [ 9.384967,51.417273,820 ]
    },
    "properties": {
    "name":"Kassel-Calden Airport",
    "city":"Kassel",
    "country":"Germany",
    "IATA":"KSF",
    "ICAO":"EDVK"
    }
  },
  {
    "type": "Feature",
    "geometry": {
       "type": "Point",
       "coordinates":  [ 9.946389198303224,52.18138885498047,292 ]
    },
    "properties": {
    "name":"Hildesheim Airport",
    "city":"Hildesheim",
    "country":"Germany",
    "IATA":"N/A",
    "ICAO":"EDVM"
    }
  },
  {
    "type": "Feature",
    "geometry": {
       "type": "Point",
       "coordinates":  [ 8.572778,53.506943,10 ]
    },
    "properties": {
    "name":"Bremerhaven Airport",
    "city":"Bremerhaven",
    "country":"Germany",
    "IATA":"BRV",
    "ICAO":"EDWB"
    }
  },
  {
    "type": "Feature",
    "geometry": {
       "type": "Point",
       "coordinates":  [ 7.2275,53.391109,3 ]
    },
    "properties": {
    "name":"Emden Airport",
    "city":"Emden",
    "country":"Germany",
    "IATA":"EME",
    "ICAO":"EDWE"
    }
  },
  {
    "type": "Feature",
    "geometry": {
       "type": "Point",
       "coordinates":  [ 7.441667079925537,53.27194213867188,3 ]
    },
    "properties": {
    "name":"Leer-Papenburg Airport",
    "city":"Leer",
    "country":"Germany",
    "IATA":"N/A",
    "ICAO":"EDWF"
    }
  },
  {
    "type": "Feature",
    "geometry": {
       "type": "Point",
       "coordinates":  [ 8.05222225189209,53.502220153808594,16 ]
    },
    "properties": {
    "name":"Wilhelmshaven-Mariensiel Airport",
    "city":"Wilhelmshaven",
    "country":"Germany",
    "IATA":"WVN",
    "ICAO":"EDWI"
    }
  },
  {
    "type": "Feature",
    "geometry": {
       "type": "Point",
       "coordinates":  [ 6.709167,53.59639,3 ]
    },
    "properties": {
    "name":"Borkum Airport",
    "city":"Borkum",
    "country":"Germany",
    "IATA":"BMK",
    "ICAO":"EDWR"
    }
  },
  {
    "type": "Feature",
    "geometry": {
       "type": "Point",
       "coordinates":  [ 7.230000019073486,53.70694351196289,7 ]
    },
    "properties": {
    "name":"Norderney Airport",
    "city":"Norderney",
    "country":"Germany",
    "IATA":"NRD",
    "ICAO":"EDWY"
    }
  },
  {
    "type": "Feature",
    "geometry": {
       "type": "Point",
       "coordinates":  [ 9.378889083862305,54.77333450317383,131 ]
    },
    "properties": {
    "name":"Flensburg-Schäferhaus Airport",
    "city":"Flensburg",
    "country":"Germany",
    "IATA":"FLF",
    "ICAO":"EDXF"
    }
  },
  {
    "type": "Feature",
    "geometry": {
       "type": "Point",
       "coordinates":  [ 9.599444389343262,54.220001220703125,23 ]
    },
    "properties": {
    "name":"Rendsburg-Schachtholm Airport",
    "city":"Rendsburg",
    "country":"Germany",
    "IATA":"N/A",
    "ICAO":"EDXR"
    }
  },
  {
    "type": "Feature",
    "geometry": {
       "type": "Point",
       "coordinates":  [ 8.34047031403,54.9132003784,51 ]
    },
    "properties": {
    "name":"Westerland Sylt Airport",
    "city":"Westerland",
    "country":"Germany",
    "IATA":"GWT",
    "ICAO":"EDXW"
    }
  },
  {
    "type": "Feature",
    "geometry": {
       "type": "Point",
       "coordinates":  [ 24.208499908447266,59.26029968261719,65 ]
    },
    "properties": {
    "name":"Ämari Air Base",
    "city":"Ämari Air Force Base",
    "country":"Estonia",
    "IATA":"N/A",
    "ICAO":"EEEI"
    }
  },
  {
    "type": "Feature",
    "geometry": {
       "type": "Point",
       "coordinates":  [ 22.830699920654297,58.99079895019531,18 ]
    },
    "properties": {
    "name":"Kärdla Airport",
    "city":"Kärdla",
    "country":"Estonia",
    "IATA":"KDL",
    "ICAO":"EEKA"
    }
  },
  {
    "type": "Feature",
    "geometry": {
       "type": "Point",
       "coordinates":  [ 22.50950050354004,58.22990036010742,14 ]
    },
    "properties": {
    "name":"Kuressaare Airport",
    "city":"Kuressaare",
    "country":"Estonia",
    "IATA":"URE",
    "ICAO":"EEKE"
    }
  },
  {
    "type": "Feature",
    "geometry": {
       "type": "Point",
       "coordinates":  [ 24.47279930114746,58.41899871826172,47 ]
    },
    "properties": {
    "name":"Pärnu Airport",
    "city":"Pärnu",
    "country":"Estonia",
    "IATA":"EPU",
    "ICAO":"EEPU"
    }
  },
  {
    "type": "Feature",
    "geometry": {
       "type": "Point",
       "coordinates":  [ 24.8327999115,59.41329956049999,131 ]
    },
    "properties": {
    "name":"Lennart Meri Tallinn Airport",
    "city":"Tallinn-ulemiste International",
    "country":"Estonia",
    "IATA":"TLL",
    "ICAO":"EETN"
    }
  },
  {
    "type": "Feature",
    "geometry": {
       "type": "Point",
       "coordinates":  [ 26.690399169900004,58.3074989319,219 ]
    },
    "properties": {
    "name":"Tartu Airport",
    "city":"Tartu",
    "country":"Estonia",
    "IATA":"TAY",
    "ICAO":"EETU"
    }
  },
  {
    "type": "Feature",
    "geometry": {
       "type": "Point",
       "coordinates":  [ 23.424299240112,68.362602233887,1005 ]
    },
    "properties": {
    "name":"Enontekio Airport",
    "city":"Enontekio",
    "country":"Finland",
    "IATA":"ENF",
    "ICAO":"EFET"
    }
  },
  {
    "type": "Feature",
    "geometry": {
       "type": "Point",
       "coordinates":  [ 22.201400756835938,61.1161003112793,259 ]
    },
    "properties": {
    "name":"Eura Airport",
    "city":"Eura",
    "country":"Finland",
    "IATA":"N/A",
    "ICAO":"EFEU"
    }
  },
  {
    "type": "Feature",
    "geometry": {
       "type": "Point",
       "coordinates":  [ 24.786686,61.856039,479 ]
    },
    "properties": {
    "name":"Halli Airport",
    "city":"Halli",
    "country":"Finland",
    "IATA":"KEV",
    "ICAO":"EFHA"
    }
  },
  {
    "type": "Feature",
    "geometry": {
       "type": "Point",
       "coordinates":  [ 25.042800903320312,60.25460052490234,57 ]
    },
    "properties": {
    "name":"Helsinki Malmi Airport",
    "city":"Helsinki",
    "country":"Finland",
    "IATA":"HEM",
    "ICAO":"EFHF"
    }
  },
  {
    "type": "Feature",
    "geometry": {
       "type": "Point",
       "coordinates":  [ 24.963300704956,60.317199707031,179 ]
    },
    "properties": {
    "name":"Helsinki-Vantaa Airport",
    "city":"Helsinki",
    "country":"Finland",
    "IATA":"HEL",
    "ICAO":"EFHK"
    }
  },
  {
    "type": "Feature",
    "geometry": {
       "type": "Point",
       "coordinates":  [ 23.073699951171875,61.689701080322266,449 ]
    },
    "properties": {
    "name":"Hameenkyro Airport",
    "city":"Hameenkyro",
    "country":"Finland",
    "IATA":"N/A",
    "ICAO":"EFHM"
    }
  },
  {
    "type": "Feature",
    "geometry": {
       "type": "Point",
       "coordinates":  [ 23.08359909057617,59.848899841308594,20 ]
    },
    "properties": {
    "name":"Hanko Airport",
    "city":"Hanko",
    "country":"Finland",
    "IATA":"N/A",
    "ICAO":"EFHN"
    }
  },
  {
    "type": "Feature",
    "geometry": {
       "type": "Point",
       "coordinates":  [ 24.8810997009,60.6543998718,430 ]
    },
    "properties": {
    "name":"Hyvinkää Airfield",
    "city":"Hyvinkää",
    "country":"Finland",
    "IATA":"HYV",
    "ICAO":"EFHV"
    }
  },
  {
    "type": "Feature",
    "geometry": {
       "type": "Point",
       "coordinates":  [ 23.6525001526,60.4625015259,381 ]
    },
    "properties": {
    "name":"Kiikala Airport",
    "city":"Kikala",
    "country":"Finland",
    "IATA":"N/A",
    "ICAO":"EFIK"
    }
  },
  {
    "type": "Feature",
    "geometry": {
       "type": "Point",
       "coordinates":  [ 28.90369987487793,61.24919891357422,338 ]
    },
    "properties": {
    "name":"Immola Airport",
    "city":"Immola",
    "country":"Finland",
    "IATA":"N/A",
    "ICAO":"EFIM"
    }
  },
  {
    "type": "Feature",
    "geometry": {
       "type": "Point",
       "coordinates":  [ 30.073601,62.1661,364 ]
    },
    "properties": {
    "name":"Kitee Airport",
    "city":"Kitee",
    "country":"Finland",
    "IATA":"KTQ",
    "ICAO":"EFIT"
    }
  },
  {
    "type": "Feature",
    "geometry": {
       "type": "Point",
       "coordinates":  [ 27.405300140381,68.607299804688,481 ]
    },
    "properties": {
    "name":"Ivalo Airport",
    "city":"Ivalo",
    "country":"Finland",
    "IATA":"IVL",
    "ICAO":"EFIV"
    }
  },
  {
    "type": "Feature",
    "geometry": {
       "type": "Point",
       "coordinates":  [ 29.607500076294,62.662899017334,398 ]
    },
    "properties": {
    "name":"Joensuu Airport",
    "city":"Joensuu",
    "country":"Finland",
    "IATA":"JOE",
    "ICAO":"EFJO"
    }
  },
  {
    "type": "Feature",
    "geometry": {
       "type": "Point",
       "coordinates":  [ 25.678300857544,62.399501800537,459 ]
    },
    "properties": {
    "name":"Jyvaskyla Airport",
    "city":"Jyvaskyla",
    "country":"Finland",
    "IATA":"JYV",
    "ICAO":"EFJY"
    }
  },
  {
    "type": "Feature",
    "geometry": {
       "type": "Point",
       "coordinates":  [ 23.051399,63.127102,151 ]
    },
    "properties": {
    "name":"Kauhava Airport",
    "city":"Kauhava",
    "country":"Finland",
    "IATA":"KAU",
    "ICAO":"EFKA"
    }
  },
  {
    "type": "Feature",
    "geometry": {
       "type": "Point",
       "coordinates":  [ 24.582099914551,65.778701782227,61 ]
    },
    "properties": {
    "name":"Kemi-Tornio Airport",
    "city":"Kemi",
    "country":"Finland",
    "IATA":"KEM",
    "ICAO":"EFKE"
    }
  },
  {
    "type": "Feature",
    "geometry": {
       "type": "Point",
       "coordinates":  [ 27.692399978638,64.285499572754,483 ]
    },
    "properties": {
    "name":"Kajaani Airport",
    "city":"Kajaani",
    "country":"Finland",
    "IATA":"KAJ",
    "ICAO":"EFKI"
    }
  },
  {
    "type": "Feature",
    "geometry": {
       "type": "Point",
       "coordinates":  [ 22.3931007385,62.4625015259,407 ]
    },
    "properties": {
    "name":"Kauhajoki Airport",
    "city":"Kauhajoki",
    "country":"Finland",
    "IATA":"KHJ",
    "ICAO":"EFKJ"
    }
  },
  {
    "type": "Feature",
    "geometry": {
       "type": "Point",
       "coordinates":  [ 23.143100738525,63.721199035645,84 ]
    },
    "properties": {
    "name":"Kokkola-Pietarsaari Airport",
    "city":"Kruunupyy",
    "country":"Finland",
    "IATA":"KOK",
    "ICAO":"EFKK"
    }
  },
  {
    "type": "Feature",
    "geometry": {
       "type": "Point",
       "coordinates":  [ 27.156799,66.712898,692 ]
    },
    "properties": {
    "name":"Kemijarvi Airport",
    "city":"Kemijarvi",
    "country":"Finland",
    "IATA":"N/A",
    "ICAO":"EFKM"
    }
  },
  {
    "type": "Feature",
    "geometry": {
       "type": "Point",
       "coordinates":  [ 29.239400863647,65.987602233887,866 ]
    },
    "properties": {
    "name":"Kuusamo Airport",
    "city":"Kuusamo",
    "country":"Finland",
    "IATA":"KAO",
    "ICAO":"EFKS"
    }
  },
  {
    "type": "Feature",
    "geometry": {
       "type": "Point",
       "coordinates":  [ 24.846799850464,67.700996398926,644 ]
    },
    "properties": {
    "name":"Kittilä Airport",
    "city":"Kittilä",
    "country":"Finland",
    "IATA":"KTT",
    "ICAO":"EFKT"
    }
  },
  {
    "type": "Feature",
    "geometry": {
       "type": "Point",
       "coordinates":  [ 27.797800064087,63.007099151611,323 ]
    },
    "properties": {
    "name":"Kuopio Airport",
    "city":"Kuopio",
    "country":"Finland",
    "IATA":"KUO",
    "ICAO":"EFKU"
    }
  },
  {
    "type": "Feature",
    "geometry": {
       "type": "Point",
       "coordinates":  [ 25.693501,61.144199,502 ]
    },
    "properties": {
    "name":"Lahti Vesivehmaa Airport",
    "city":"Vesivehmaa",
    "country":"Finland",
    "IATA":"QLF",
    "ICAO":"EFLA"
    }
  },
  {
    "type": "Feature",
    "geometry": {
       "type": "Point",
       "coordinates":  [ 28.144743,61.044601,349 ]
    },
    "properties": {
    "name":"Lappeenranta Airport",
    "city":"Lappeenranta",
    "country":"Finland",
    "IATA":"LPP",
    "ICAO":"EFLP"
    }
  },
  {
    "type": "Feature",
    "geometry": {
       "type": "Point",
       "coordinates":  [ 19.898199081421,60.122200012207,17 ]
    },
    "properties": {
    "name":"Mariehamn Airport",
    "city":"Mariehamn",
    "country":"Finland",
    "IATA":"MHQ",
    "ICAO":"EFMA"
    }
  },
  {
    "type": "Feature",
    "geometry": {
       "type": "Point",
       "coordinates":  [ 23.51889991760254,62.94670104980469,331 ]
    },
    "properties": {
    "name":"Menkijarvi Airport",
    "city":"Menkijarvi",
    "country":"Finland",
    "IATA":"N/A",
    "ICAO":"EFME"
    }
  },
  {
    "type": "Feature",
    "geometry": {
       "type": "Point",
       "coordinates":  [ 27.201799,61.6866,329 ]
    },
    "properties": {
    "name":"Mikkeli Airport",
    "city":"Mikkeli",
    "country":"Finland",
    "IATA":"MIK",
    "ICAO":"EFMI"
    }
  },
  {
    "type": "Feature",
    "geometry": {
       "type": "Point",
       "coordinates":  [ 24.2964000702,60.3339004517,367 ]
    },
    "properties": {
    "name":"Nummela Airport",
    "city":"Nummela",
    "country":"Finland",
    "IATA":"N/A",
    "ICAO":"EFNU"
    }
  },
  {
    "type": "Feature",
    "geometry": {
       "type": "Point",
       "coordinates":  [ 25.354600906372,64.930099487305,47 ]
    },
    "properties": {
    "name":"Oulu Airport",
    "city":"Oulu",
    "country":"Finland",
    "IATA":"OUL",
    "ICAO":"EFOU"
    }
  },
  {
    "type": "Feature",
    "geometry": {
       "type": "Point",
       "coordinates":  [ 22.19339942932129,61.245601654052734,148 ]
    },
    "properties": {
    "name":"Piikajarvi Airport",
    "city":"Piikajarvi",
    "country":"Finland",
    "IATA":"N/A",
    "ICAO":"EFPI"
    }
  },
  {
    "type": "Feature",
    "geometry": {
       "type": "Point",
       "coordinates":  [ 21.799999237061,61.461700439453,44 ]
    },
    "properties": {
    "name":"Pori Airport",
    "city":"Pori",
    "country":"Finland",
    "IATA":"POR",
    "ICAO":"EFPO"
    }
  },
  {
    "type": "Feature",
    "geometry": {
       "type": "Point",
       "coordinates":  [ 26.9468994141,65.4021987915,397 ]
    },
    "properties": {
    "name":"Pudasjärvi Airport",
    "city":"Pudasjärvi",
    "country":"Finland",
    "IATA":"N/A",
    "ICAO":"EFPU"
    }
  },
  {
    "type": "Feature",
    "geometry": {
       "type": "Point",
       "coordinates":  [ 25.9263000488,63.7318992615,528 ]
    },
    "properties": {
    "name":"Pyhäsalmi Airport",
    "city":"Pyhäsalmi",
    "country":"Finland",
    "IATA":"N/A",
    "ICAO":"EFPY"
    }
  },
  {
    "type": "Feature",
    "geometry": {
       "type": "Point",
       "coordinates":  [ 24.6958007812,64.6881027222,118 ]
    },
    "properties": {
    "name":"Raahe Pattijoki Airport",
    "city":"Pattijoki",
    "country":"Finland",
    "IATA":"N/A",
    "ICAO":"EFRH"
    }
  },
  {
    "type": "Feature",
    "geometry": {
       "type": "Point",
       "coordinates":  [ 28.3565006256,62.0654983521,292 ]
    },
    "properties": {
    "name":"Rantasalmi Airport",
    "city":"Rantasalmi",
    "country":"Finland",
    "IATA":"N/A",
    "ICAO":"EFRN"
    }
  },
  {
    "type": "Feature",
    "geometry": {
       "type": "Point",
       "coordinates":  [ 25.830400466919,66.564796447754,642 ]
    },
    "properties": {
    "name":"Rovaniemi Airport",
    "city":"Rovaniemi",
    "country":"Finland",
    "IATA":"RVN",
    "ICAO":"EFRO"
    }
  },
  {
    "type": "Feature",
    "geometry": {
       "type": "Point",
       "coordinates":  [ 24.107799530029297,60.74470138549805,407 ]
    },
    "properties": {
    "name":"Rayskala Airport",
    "city":"Rayskala",
    "country":"Finland",
    "IATA":"N/A",
    "ICAO":"EFRY"
    }
  },
  {
    "type": "Feature",
    "geometry": {
       "type": "Point",
       "coordinates":  [ 28.945100784302,61.943099975586,311 ]
    },
    "properties": {
    "name":"Savonlinna Airport",
    "city":"Savonlinna",
    "country":"Finland",
    "IATA":"SVL",
    "ICAO":"EFSA"
    }
  },
  {
    "type": "Feature",
    "geometry": {
       "type": "Point",
       "coordinates":  [ 26.798900604248047,61.06240081787109,417 ]
    },
    "properties": {
    "name":"Selanpaa Airport",
    "city":"Selanpaa",
    "country":"Finland",
    "IATA":"N/A",
    "ICAO":"EFSE"
    }
  },
  {
    "type": "Feature",
    "geometry": {
       "type": "Point",
       "coordinates":  [ 26.6191005707,67.3949966431,602 ]
    },
    "properties": {
    "name":"Sodankyla Airport",
    "city":"Sodankyla",
    "country":"Finland",
    "IATA":"SOT",
    "ICAO":"EFSO"
    }
  },
  {
    "type": "Feature",
    "geometry": {
       "type": "Point",
       "coordinates":  [ 23.604400634766,61.414100646973,390 ]
    },
    "properties": {
    "name":"Tampere-Pirkkala Airport",
    "city":"Tampere",
    "country":"Finland",
    "IATA":"TMP",
    "ICAO":"EFTP"
    }
  },
  {
    "type": "Feature",
    "geometry": {
       "type": "Point",
       "coordinates":  [ 24.027,61.7733,515 ]
    },
    "properties": {
    "name":"Teisko Airport",
    "city":"Teisko",
    "country":"Finland",
    "IATA":"N/A",
    "ICAO":"EFTS"
    }
  },
  {
    "type": "Feature",
    "geometry": {
       "type": "Point",
       "coordinates":  [ 22.262800216675,60.514099121094,161 ]
    },
    "properties": {
    "name":"Turku Airport",
    "city":"Turku",
    "country":"Finland",
    "IATA":"TKU",
    "ICAO":"EFTU"
    }
  },
  {
    "type": "Feature",
    "geometry": {
       "type": "Point",
       "coordinates":  [ 26.938400268555,60.89640045166,339 ]
    },
    "properties": {
    "name":"Utti Air Base",
    "city":"Utti",
    "country":"Finland",
    "IATA":"UTI",
    "ICAO":"EFUT"
    }
  },
  {
    "type": "Feature",
    "geometry": {
       "type": "Point",
       "coordinates":  [ 21.762199401855,63.050701141357,19 ]
    },
    "properties": {
    "name":"Vaasa Airport",
    "city":"Vaasa",
    "country":"Finland",
    "IATA":"VAA",
    "ICAO":"EFVA"
    }
  },
  {
    "type": "Feature",
    "geometry": {
       "type": "Point",
       "coordinates":  [ 27.868600845337,62.171100616455,286 ]
    },
    "properties": {
    "name":"Varkaus Airport",
    "city":"Varkaus",
    "country":"Finland",
    "IATA":"VRK",
    "ICAO":"EFVR"
    }
  },
  {
    "type": "Feature",
    "geometry": {
       "type": "Point",
       "coordinates":  [ 24.7252778,64.0547222,252 ]
    },
    "properties": {
    "name":"Ylivieska Airfield",
    "city":"Ylivieska-raudaskyla",
    "country":"Finland",
    "IATA":"YLI",
    "ICAO":"EFYL"
    }
  },
  {
    "type": "Feature",
    "geometry": {
       "type": "Point",
       "coordinates":  [ -6.21582984924,54.6575012207,268 ]
    },
    "properties": {
    "name":"Belfast International Airport",
    "city":"Belfast",
    "country":"United Kingdom",
    "IATA":"BFS",
    "ICAO":"EGAA"
    }
  },
  {
    "type": "Feature",
    "geometry": {
       "type": "Point",
       "coordinates":  [ -7.651669979095459,54.39889907836914,155 ]
    },
    "properties": {
    "name":"St Angelo Airport",
    "city":"Enniskillen",
    "country":"United Kingdom",
    "IATA":"ENK",
    "ICAO":"EGAB"
    }
  },
  {
    "type": "Feature",
    "geometry": {
       "type": "Point",
       "coordinates":  [ -5.872499942779541,54.61809921264648,15 ]
    },
    "properties": {
    "name":"George Best Belfast City Airport",
    "city":"Belfast",
    "country":"United Kingdom",
    "IATA":"BHD",
    "ICAO":"EGAC"
    }
  },
  {
    "type": "Feature",
    "geometry": {
       "type": "Point",
       "coordinates":  [ -7.161109924316406,55.04280090332031,22 ]
    },
    "properties": {
    "name":"City of Derry Airport",
    "city":"Londonderry",
    "country":"United Kingdom",
    "IATA":"LDY",
    "ICAO":"EGAE"
    }
  },
  {
    "type": "Feature",
    "geometry": {
       "type": "Point",
       "coordinates":  [ -1.74802994728,52.4538993835,327 ]
    },
    "properties": {
    "name":"Birmingham International Airport",
    "city":"Birmingham",
    "country":"United Kingdom",
    "IATA":"BHX",
    "ICAO":"EGBB"
    }
  },
  {
    "type": "Feature",
    "geometry": {
       "type": "Point",
       "coordinates":  [ -1.47971999645,52.3697013855,267 ]
    },
    "properties": {
    "name":"Coventry Airport",
    "city":"Coventry",
    "country":"United Kingdom",
    "IATA":"CVT",
    "ICAO":"EGBE"
    }
  },
  {
    "type": "Feature",
    "geometry": {
       "type": "Point",
       "coordinates":  [ -1.03193998336792,52.6077995300293,469 ]
    },
    "properties": {
    "name":"Leicester Airport",
    "city":"Leicester",
    "country":"United Kingdom",
    "IATA":"N/A",
    "ICAO":"EGBG"
    }
  },
  {
    "type": "Feature",
    "geometry": {
       "type": "Point",
       "coordinates":  [ -2.167220115661621,51.89419937133789,101 ]
    },
    "properties": {
    "name":"Gloucestershire Airport",
    "city":"Golouchestershire",
    "country":"United Kingdom",
    "IATA":"GLO",
    "ICAO":"EGBJ"
    }
  },
  {
    "type": "Feature",
    "geometry": {
       "type": "Point",
       "coordinates":  [ -2.2594399452209477,52.51750183105469,283 ]
    },
    "properties": {
    "name":"Wolverhampton Halfpenny Green Airport",
    "city":"Halfpenny Green",
    "country":"United Kingdom",
    "IATA":"N/A",
    "ICAO":"EGBO"
    }
  },
  {
    "type": "Feature",
    "geometry": {
       "type": "Point",
       "coordinates":  [ -2.05694,51.668095,433 ]
    },
    "properties": {
    "name":"Cotswold Airport",
    "city":"Pailton",
    "country":"United Kingdom",
    "IATA":"GBA",
    "ICAO":"EGBP"
    }
  },
  {
    "type": "Feature",
    "geometry": {
       "type": "Point",
       "coordinates":  [ -1.09555995464,52.0407981873,448 ]
    },
    "properties": {
    "name":"Turweston Airport",
    "city":"Turweston",
    "country":"United Kingdom",
    "IATA":"N/A",
    "ICAO":"EGBT"
    }
  },
  {
    "type": "Feature",
    "geometry": {
       "type": "Point",
       "coordinates":  [ -1.6144399642944336,52.19219970703125,159 ]
    },
    "properties": {
    "name":"Wellesbourne Mountford Airport",
    "city":"Wellesbourne",
    "country":"United Kingdom",
    "IATA":"N/A",
    "ICAO":"EGBW"
    }
  },
  {
    "type": "Feature",
    "geometry": {
       "type": "Point",
       "coordinates":  [ -2.2749500274658203,53.35369873046875,257 ]
    },
    "properties": {
    "name":"Manchester Airport",
    "city":"Manchester",
    "country":"United Kingdom",
    "IATA":"MAN",
    "ICAO":"EGCC"
    }
  },
  {
    "type": "Feature",
    "geometry": {
       "type": "Point",
       "coordinates":  [ -2.14889,53.3381,295 ]
    },
    "properties": {
    "name":"Manchester Woodford Airport",
    "city":"Woodfort",
    "country":"United Kingdom",
    "IATA":"N/A",
    "ICAO":"EGCD"
    }
  },
  {
    "type": "Feature",
    "geometry": {
       "type": "Point",
       "coordinates":  [ -4.150340080261231,51.08720016479492,27 ]
    },
    "properties": {
    "name":"Royal Marines Base Chivenor Airport",
    "city":"Chivenor",
    "country":"United Kingdom",
    "IATA":"N/A",
    "ICAO":"EGDC"
    }
  },
  {
    "type": "Feature",
    "geometry": {
       "type": "Point",
       "coordinates":  [ -4.995409965515137,50.44060134887695,390 ]
    },
    "properties": {
    "name":"Newquay Cornwall Airport",
    "city":"Newquai",
    "country":"United Kingdom",
    "IATA":"NQY",
    "ICAO":"EGHQ"
    }
  },
  {
    "type": "Feature",
    "geometry": {
       "type": "Point",
       "coordinates":  [ -1.99343,51.5051,513 ]
    },
    "properties": {
    "name":"RAF Lyneham",
    "city":"Lyneham",
    "country":"United Kingdom",
    "IATA":"LYE",
    "ICAO":"EGDL"
    }
  },
  {
    "type": "Feature",
    "geometry": {
       "type": "Point",
       "coordinates":  [ -1.7474100589752195,51.15219879150391,407 ]
    },
    "properties": {
    "name":"MoD Boscombe Down Airport",
    "city":"Boscombe Down",
    "country":"United Kingdom",
    "IATA":"N/A",
    "ICAO":"EGDM"
    }
  },
  {
    "type": "Feature",
    "geometry": {
       "type": "Point",
       "coordinates":  [ -5.255710124969482,50.08610153198242,267 ]
    },
    "properties": {
    "name":"RNAS Culdrose",
    "city":"Culdrose",
    "country":"United Kingdom",
    "IATA":"N/A",
    "ICAO":"EGDR"
    }
  },
  {
    "type": "Feature",
    "geometry": {
       "type": "Point",
       "coordinates":  [ -3.43575,51.4048,163 ]
    },
    "properties": {
    "name":"MoD St. Athan",
    "city":"St. Athan",
    "country":"United Kingdom",
    "IATA":"N/A",
    "ICAO":"EGDX"
    }
  },
  {
    "type": "Feature",
    "geometry": {
       "type": "Point",
       "coordinates":  [ -2.638819932937622,51.0093994140625,75 ]
    },
    "properties": {
    "name":"RNAS Yeovilton",
    "city":"Yeovilton",
    "country":"United Kingdom",
    "IATA":"YEO",
    "ICAO":"EGDY"
    }
  },
  {
    "type": "Feature",
    "geometry": {
       "type": "Point",
       "coordinates":  [ -4.9611101150512695,51.833099365234375,159 ]
    },
    "properties": {
    "name":"Haverfordwest Airport",
    "city":"Haverfordwest",
    "country":"United Kingdom",
    "IATA":"HAW",
    "ICAO":"EGFE"
    }
  },
  {
    "type": "Feature",
    "geometry": {
       "type": "Point",
       "coordinates":  [ -3.343329906463623,51.39670181274414,220 ]
    },
    "properties": {
    "name":"Cardiff International Airport",
    "city":"Cardiff",
    "country":"United Kingdom",
    "IATA":"CWL",
    "ICAO":"EGFF"
    }
  },
  {
    "type": "Feature",
    "geometry": {
       "type": "Point",
       "coordinates":  [ -4.0678300857543945,51.60530090332031,299 ]
    },
    "properties": {
    "name":"Swansea Airport",
    "city":"Swansea",
    "country":"United Kingdom",
    "IATA":"SWS",
    "ICAO":"EGFH"
    }
  },
  {
    "type": "Feature",
    "geometry": {
       "type": "Point",
       "coordinates":  [ -2.71909,51.382702,622 ]
    },
    "properties": {
    "name":"Bristol Airport",
    "city":"Bristol",
    "country":"United Kingdom",
    "IATA":"BRS",
    "ICAO":"EGGD"
    }
  },
  {
    "type": "Feature",
    "geometry": {
       "type": "Point",
       "coordinates":  [ -2.849720001220703,53.33359909057617,80 ]
    },
    "properties": {
    "name":"Liverpool John Lennon Airport",
    "city":"Liverpool",
    "country":"United Kingdom",
    "IATA":"LPL",
    "ICAO":"EGGP"
    }
  },
  {
    "type": "Feature",
    "geometry": {
       "type": "Point",
       "coordinates":  [ -0.3683330118656158,51.874698638916016,526 ]
    },
    "properties": {
    "name":"London Luton Airport",
    "city":"London",
    "country":"United Kingdom",
    "IATA":"LTN",
    "ICAO":"EGGW"
    }
  },
  {
    "type": "Feature",
    "geometry": {
       "type": "Point",
       "coordinates":  [ -4.10583,50.422798,476 ]
    },
    "properties": {
    "name":"Plymouth City Airport",
    "city":"Plymouth",
    "country":"United Kingdom",
    "IATA":"PLH",
    "ICAO":"EGHD"
    }
  },
  {
    "type": "Feature",
    "geometry": {
       "type": "Point",
       "coordinates":  [ -1.8424999713897705,50.77999877929688,38 ]
    },
    "properties": {
    "name":"Bournemouth Airport",
    "city":"Bournemouth",
    "country":"United Kingdom",
    "IATA":"BOH",
    "ICAO":"EGHH"
    }
  },
  {
    "type": "Feature",
    "geometry": {
       "type": "Point",
       "coordinates":  [ -1.3567999601364136,50.95029830932617,44 ]
    },
    "properties": {
    "name":"Southampton Airport",
    "city":"Southampton",
    "country":"United Kingdom",
    "IATA":"SOU",
    "ICAO":"EGHI"
    }
  },
  {
    "type": "Feature",
    "geometry": {
       "type": "Point",
       "coordinates":  [ -1.0334999561309814,51.187198638916016,618 ]
    },
    "properties": {
    "name":"Lasham Airport",
    "city":"Lasham",
    "country":"United Kingdom",
    "IATA":"QLA",
    "ICAO":"EGHL"
    }
  },
  {
    "type": "Feature",
    "geometry": {
       "type": "Point",
       "coordinates":  [ -0.297222,50.835602,7 ]
    },
    "properties": {
    "name":"Shoreham Airport",
    "city":"Shoreham By Sea",
    "country":"United Kingdom",
    "IATA":"ESH",
    "ICAO":"EGKA"
    }
  },
  {
    "type": "Feature",
    "geometry": {
       "type": "Point",
       "coordinates":  [ 0.0324999988079,51.33079910279999,598 ]
    },
    "properties": {
    "name":"London Biggin Hill Airport",
    "city":"Biggin Hill",
    "country":"United Kingdom",
    "IATA":"BQH",
    "ICAO":"EGKB"
    }
  },
  {
    "type": "Feature",
    "geometry": {
       "type": "Point",
       "coordinates":  [ -0.190278,51.148102,202 ]
    },
    "properties": {
    "name":"London Gatwick Airport",
    "city":"London",
    "country":"United Kingdom",
    "IATA":"LGW",
    "ICAO":"EGKK"
    }
  },
  {
    "type": "Feature",
    "geometry": {
       "type": "Point",
       "coordinates":  [ 0.055278,51.505299,19 ]
    },
    "properties": {
    "name":"London City Airport",
    "city":"London",
    "country":"United Kingdom",
    "IATA":"LCY",
    "ICAO":"EGLC"
    }
  },
  {
    "type": "Feature",
    "geometry": {
       "type": "Point",
       "coordinates":  [ -0.776332974434,51.2757987976,238 ]
    },
    "properties": {
    "name":"Farnborough Airport",
    "city":"Farnborough",
    "country":"United Kingdom",
    "IATA":"FAB",
    "ICAO":"EGLF"
    }
  },
  {
    "type": "Feature",
    "geometry": {
       "type": "Point",
       "coordinates":  [ -1.0808299779891968,51.67610168457031,240 ]
    },
    "properties": {
    "name":"Chalgrove Airport",
    "city":"Chalsgrove",
    "country":"United Kingdom",
    "IATA":"N/A",
    "ICAO":"EGLJ"
    }
  },
  {
    "type": "Feature",
    "geometry": {
       "type": "Point",
       "coordinates":  [ -0.8475000262260437,51.32389831542969,325 ]
    },
    "properties": {
    "name":"Blackbushe Airport",
    "city":"Blackbushe",
    "country":"United Kingdom",
    "IATA":"BBS",
    "ICAO":"EGLK"
    }
  },
  {
    "type": "Feature",
    "geometry": {
       "type": "Point",
       "coordinates":  [ -0.461941,51.4706,83 ]
    },
    "properties": {
    "name":"London Heathrow Airport",
    "city":"London",
    "country":"United Kingdom",
    "IATA":"LHR",
    "ICAO":"EGLL"
    }
  },
  {
    "type": "Feature",
    "geometry": {
       "type": "Point",
       "coordinates":  [ 0.6955559849739075,51.5713996887207,49 ]
    },
    "properties": {
    "name":"Southend Airport",
    "city":"Southend",
    "country":"United Kingdom",
    "IATA":"SEN",
    "ICAO":"EGMC"
    }
  },
  {
    "type": "Feature",
    "geometry": {
       "type": "Point",
       "coordinates":  [ 0.939167022705078,50.95610046386719,13 ]
    },
    "properties": {
    "name":"Lydd Airport",
    "city":"Lydd",
    "country":"United Kingdom",
    "IATA":"LYX",
    "ICAO":"EGMD"
    }
  },
  {
    "type": "Feature",
    "geometry": {
       "type": "Point",
       "coordinates":  [ 1.34611,51.342201,178 ]
    },
    "properties": {
    "name":"Kent International Airport",
    "city":"Manston",
    "country":"United Kingdom",
    "IATA":"MSE",
    "ICAO":"EGMH"
    }
  },
  {
    "type": "Feature",
    "geometry": {
       "type": "Point",
       "coordinates":  [ -0.566333,53.7197,12 ]
    },
    "properties": {
    "name":"Brough Airport",
    "city":"Brough",
    "country":"United Kingdom",
    "IATA":"N/A",
    "ICAO":"EGNB"
    }
  },
  {
    "type": "Feature",
    "geometry": {
       "type": "Point",
       "coordinates":  [ -2.8091700077056885,54.9375,190 ]
    },
    "properties": {
    "name":"Carlisle Airport",
    "city":"Carlisle",
    "country":"United Kingdom",
    "IATA":"CAX",
    "ICAO":"EGNC"
    }
  },
  {
    "type": "Feature",
    "geometry": {
       "type": "Point",
       "coordinates":  [ -0.9513890147209167,53.28060150146485,91 ]
    },
    "properties": {
    "name":"Retford Gamston Airport",
    "city":"Repton",
    "country":"United Kingdom",
    "IATA":"N/A",
    "ICAO":"EGNE"
    }
  },
  {
    "type": "Feature",
    "geometry": {
       "type": "Point",
       "coordinates":  [ -3.0286099910736084,53.77170181274414,34 ]
    },
    "properties": {
    "name":"Blackpool International Airport",
    "city":"Blackpool",
    "country":"United Kingdom",
    "IATA":"BLK",
    "ICAO":"EGNH"
    }
  },
  {
    "type": "Feature",
    "geometry": {
       "type": "Point",
       "coordinates":  [ -0.350832998752594,53.57440185546875,121 ]
    },
    "properties": {
    "name":"Humberside Airport",
    "city":"Humberside",
    "country":"United Kingdom",
    "IATA":"HUY",
    "ICAO":"EGNJ"
    }
  },
  {
    "type": "Feature",
    "geometry": {
       "type": "Point",
       "coordinates":  [ -3.2675,54.1286111,173 ]
    },
    "properties": {
    "name":"Barrow Walney Island Airport",
    "city":"Barrow Island",
    "country":"United Kingdom",
    "IATA":"BWF",
    "ICAO":"EGNL"
    }
  },
  {
    "type": "Feature",
    "geometry": {
       "type": "Point",
       "coordinates":  [ -1.6605700254440308,53.86589813232422,681 ]
    },
    "properties": {
    "name":"Leeds Bradford Airport",
    "city":"Leeds",
    "country":"United Kingdom",
    "IATA":"LBA",
    "ICAO":"EGNM"
    }
  },
  {
    "type": "Feature",
    "geometry": {
       "type": "Point",
       "coordinates":  [ -2.88306,53.745098,55 ]
    },
    "properties": {
    "name":"Warton Airport",
    "city":"Warton",
    "country":"United Kingdom",
    "IATA":"WRT",
    "ICAO":"EGNO"
    }
  },
  {
    "type": "Feature",
    "geometry": {
       "type": "Point",
       "coordinates":  [ -2.977780103683472,53.1781005859375,45 ]
    },
    "properties": {
    "name":"Hawarden Airport",
    "city":"Hawarden",
    "country":"United Kingdom",
    "IATA":"CEG",
    "ICAO":"EGNR"
    }
  },
  {
    "type": "Feature",
    "geometry": {
       "type": "Point",
       "coordinates":  [ -1.6916699409484863,55.03749847412109,266 ]
    },
    "properties": {
    "name":"Newcastle Airport",
    "city":"Newcastle",
    "country":"United Kingdom",
    "IATA":"NCL",
    "ICAO":"EGNT"
    }
  },
  {
    "type": "Feature",
    "geometry": {
       "type": "Point",
       "coordinates":  [ -1.4294099807739258,54.50920104980469,120 ]
    },
    "properties": {
    "name":"Durham Tees Valley Airport",
    "city":"Teesside",
    "country":"United Kingdom",
    "IATA":"MME",
    "ICAO":"EGNV"
    }
  },
  {
    "type": "Feature",
    "geometry": {
       "type": "Point",
       "coordinates":  [ -1.32806003094,52.8311004639,306 ]
    },
    "properties": {
    "name":"East Midlands Airport",
    "city":"East Midlands",
    "country":"United Kingdom",
    "IATA":"EMA",
    "ICAO":"EGNX"
    }
  },
  {
    "type": "Feature",
    "geometry": {
       "type": "Point",
       "coordinates":  [ -4.1235799789429,52.811698913574,30 ]
    },
    "properties": {
    "name":"Llanbedr Airport",
    "city":"Llanbedr",
    "country":"United Kingdom",
    "IATA":"N/A",
    "ICAO":"EGOD"
    }
  },
  {
    "type": "Feature",
    "geometry": {
       "type": "Point",
       "coordinates":  [ -2.533560037612915,52.87120056152344,272 ]
    },
    "properties": {
    "name":"RAF Ternhill",
    "city":"Ternhill",
    "country":"United Kingdom",
    "IATA":"N/A",
    "ICAO":"EGOE"
    }
  },
  {
    "type": "Feature",
    "geometry": {
       "type": "Point",
       "coordinates":  [ -2.668040037155152,52.79819869995117,249 ]
    },
    "properties": {
    "name":"RAF Shawbury",
    "city":"Shawbury",
    "country":"United Kingdom",
    "IATA":"N/A",
    "ICAO":"EGOS"
    }
  },
  {
    "type": "Feature",
    "geometry": {
       "type": "Point",
       "coordinates":  [ -3.05552,53.5816,37 ]
    },
    "properties": {
    "name":"RAF Woodvale",
    "city":"Woodvale",
    "country":"United Kingdom",
    "IATA":"N/A",
    "ICAO":"EGOW"
    }
  },
  {
    "type": "Feature",
    "geometry": {
       "type": "Point",
       "coordinates":  [ -2.9049999713897705,58.957801818847656,50 ]
    },
    "properties": {
    "name":"Kirkwall Airport",
    "city":"Kirkwall",
    "country":"United Kingdom",
    "IATA":"KOI",
    "ICAO":"EGPA"
    }
  },
  {
    "type": "Feature",
    "geometry": {
       "type": "Point",
       "coordinates":  [ -1.295560002326965,59.87889862060547,20 ]
    },
    "properties": {
    "name":"Sumburgh Airport",
    "city":"Sumburgh",
    "country":"United Kingdom",
    "IATA":"LSI",
    "ICAO":"EGPB"
    }
  },
  {
    "type": "Feature",
    "geometry": {
       "type": "Point",
       "coordinates":  [ -3.09306001663208,58.45890045166016,126 ]
    },
    "properties": {
    "name":"Wick Airport",
    "city":"Wick",
    "country":"United Kingdom",
    "IATA":"WIC",
    "ICAO":"EGPC"
    }
  },
  {
    "type": "Feature",
    "geometry": {
       "type": "Point",
       "coordinates":  [ -2.197779893875122,57.20190048217773,215 ]
    },
    "properties": {
    "name":"Aberdeen Dyce Airport",
    "city":"Aberdeen",
    "country":"United Kingdom",
    "IATA":"ABZ",
    "ICAO":"EGPD"
    }
  },
  {
    "type": "Feature",
    "geometry": {
       "type": "Point",
       "coordinates":  [ -4.047500133514404,57.54249954223633,31 ]
    },
    "properties": {
    "name":"Inverness Airport",
    "city":"Inverness",
    "country":"United Kingdom",
    "IATA":"INV",
    "ICAO":"EGPE"
    }
  },
  {
    "type": "Feature",
    "geometry": {
       "type": "Point",
       "coordinates":  [ -4.43306016922,55.8718986511,26 ]
    },
    "properties": {
    "name":"Glasgow International Airport",
    "city":"Glasgow",
    "country":"United Kingdom",
    "IATA":"GLA",
    "ICAO":"EGPF"
    }
  },
  {
    "type": "Feature",
    "geometry": {
       "type": "Point",
       "coordinates":  [ -3.372499942779541,55.95000076293945,135 ]
    },
    "properties": {
    "name":"Edinburgh Airport",
    "city":"Edinburgh",
    "country":"United Kingdom",
    "IATA":"EDI",
    "ICAO":"EGPH"
    }
  },
  {
    "type": "Feature",
    "geometry": {
       "type": "Point",
       "coordinates":  [ -6.256669998168945,55.68190002441406,56 ]
    },
    "properties": {
    "name":"Islay Airport",
    "city":"Islay",
    "country":"United Kingdom",
    "IATA":"ILY",
    "ICAO":"EGPI"
    }
  },
  {
    "type": "Feature",
    "geometry": {
       "type": "Point",
       "coordinates":  [ -4.586669921875,55.5093994140625,65 ]
    },
    "properties": {
    "name":"Glasgow Prestwick Airport",
    "city":"Prestwick",
    "country":"United Kingdom",
    "IATA":"PIK",
    "ICAO":"EGPK"
    }
  },
  {
    "type": "Feature",
    "geometry": {
       "type": "Point",
       "coordinates":  [ -7.362780094146728,57.48109817504883,19 ]
    },
    "properties": {
    "name":"Benbecula Airport",
    "city":"Benbecula",
    "country":"United Kingdom",
    "IATA":"BEB",
    "ICAO":"EGPL"
    }
  },
  {
    "type": "Feature",
    "geometry": {
       "type": "Point",
       "coordinates":  [ -1.2961100339889526,60.43280029296875,81 ]
    },
    "properties": {
    "name":"Scatsta Airport",
    "city":"Scatsta",
    "country":"United Kingdom",
    "IATA":"SCS",
    "ICAO":"EGPM"
    }
  },
  {
    "type": "Feature",
    "geometry": {
       "type": "Point",
       "coordinates":  [ -3.025830030441284,56.45249938964844,17 ]
    },
    "properties": {
    "name":"Dundee Airport",
    "city":"Dundee",
    "country":"United Kingdom",
    "IATA":"DND",
    "ICAO":"EGPN"
    }
  },
  {
    "type": "Feature",
    "geometry": {
       "type": "Point",
       "coordinates":  [ -6.331110000610352,58.215599060058594,26 ]
    },
    "properties": {
    "name":"Stornoway Airport",
    "city":"Stornoway",
    "country":"United Kingdom",
    "IATA":"SYY",
    "ICAO":"EGPO"
    }
  },
  {
    "type": "Feature",
    "geometry": {
       "type": "Point",
       "coordinates":  [ -6.869170188903809,56.49919891357422,38 ]
    },
    "properties": {
    "name":"Tiree Airport",
    "city":"Tiree",
    "country":"United Kingdom",
    "IATA":"TRE",
    "ICAO":"EGPU"
    }
  },
  {
    "type": "Feature",
    "geometry": {
       "type": "Point",
       "coordinates":  [ -2.8684399127960205,56.37289810180664,38 ]
    },
    "properties": {
    "name":"RAF Leuchars",
    "city":"Leuchars",
    "country":"United Kingdom",
    "IATA":"ADX",
    "ICAO":"EGQL"
    }
  },
  {
    "type": "Feature",
    "geometry": {
       "type": "Point",
       "coordinates":  [ -3.339169979095459,57.7052001953125,42 ]
    },
    "properties": {
    "name":"RAF Lossiemouth",
    "city":"Lossiemouth",
    "country":"United Kingdom",
    "IATA":"LMO",
    "ICAO":"EGQS"
    }
  },
  {
    "type": "Feature",
    "geometry": {
       "type": "Point",
       "coordinates":  [ 0.175,52.205002,47 ]
    },
    "properties": {
    "name":"Cambridge Airport",
    "city":"Cambridge",
    "country":"United Kingdom",
    "IATA":"CBG",
    "ICAO":"EGSC"
    }
  },
  {
    "type": "Feature",
    "geometry": {
       "type": "Point",
       "coordinates":  [ -0.2511110007762909,52.46810150146485,26 ]
    },
    "properties": {
    "name":"Peterborough Business Airport",
    "city":"Peterborough",
    "country":"United Kingdom",
    "IATA":"N/A",
    "ICAO":"EGSF"
    }
  },
  {
    "type": "Feature",
    "geometry": {
       "type": "Point",
       "coordinates":  [ 1.28278005123,52.6758003235,117 ]
    },
    "properties": {
    "name":"Norwich International Airport",
    "city":"Norwich",
    "country":"United Kingdom",
    "IATA":"NWI",
    "ICAO":"EGSH"
    }
  },
  {
    "type": "Feature",
    "geometry": {
       "type": "Point",
       "coordinates":  [ 0.234999999404,51.8849983215,348 ]
    },
    "properties": {
    "name":"London Stansted Airport",
    "city":"London",
    "country":"United Kingdom",
    "IATA":"STN",
    "ICAO":"EGSS"
    }
  },
  {
    "type": "Feature",
    "geometry": {
       "type": "Point",
       "coordinates":  [ 0.154166996479,51.721698761,321 ]
    },
    "properties": {
    "name":"North Weald Airport",
    "city":"North Weald",
    "country":"United Kingdom",
    "IATA":"N/A",
    "ICAO":"EGSX"
    }
  },
  {
    "type": "Feature",
    "geometry": {
       "type": "Point",
       "coordinates":  [ -1.38849,53.394299,231 ]
    },
    "properties": {
    "name":"Sheffield City Heliport",
    "city":"Fowlmere",
    "country":"United Kingdom",
    "IATA":"N/A",
    "ICAO":"EGSY"
    }
  },
  {
    "type": "Feature",
    "geometry": {
       "type": "Point",
       "coordinates":  [ -0.616666972637,52.0722007751,358 ]
    },
    "properties": {
    "name":"Cranfield Airport",
    "city":"Cranfield",
    "country":"United Kingdom",
    "IATA":"N/A",
    "ICAO":"EGTC"
    }
  },
  {
    "type": "Feature",
    "geometry": {
       "type": "Point",
       "coordinates":  [ -3.4138898849487305,50.73440170288086,102 ]
    },
    "properties": {
    "name":"Exeter International Airport",
    "city":"Exeter",
    "country":"United Kingdom",
    "IATA":"EXT",
    "ICAO":"EGTE"
    }
  },
  {
    "type": "Feature",
    "geometry": {
       "type": "Point",
       "coordinates":  [ -2.59083008766,51.5194015503,226 ]
    },
    "properties": {
    "name":"Bristol Filton Airport",
    "city":"Bristol",
    "country":"United Kingdom",
    "IATA":"FZO",
    "ICAO":"EGTG"
    }
  },
  {
    "type": "Feature",
    "geometry": {
       "type": "Point",
       "coordinates":  [ -1.32000005245,51.8368988037,270 ]
    },
    "properties": {
    "name":"Oxford (Kidlington) Airport",
    "city":"Oxford",
    "country":"United Kingdom",
    "IATA":"OXF",
    "ICAO":"EGTK"
    }
  },
  {
    "type": "Feature",
    "geometry": {
       "type": "Point",
       "coordinates":  [ -1.09582996368,51.6164016724,226 ]
    },
    "properties": {
    "name":"RAF Benson",
    "city":"Benson",
    "country":"United Kingdom",
    "IATA":"BEX",
    "ICAO":"EGUB"
    }
  },
  {
    "type": "Feature",
    "geometry": {
       "type": "Point",
       "coordinates":  [ 0.56099998951,52.4093017578,32 ]
    },
    "properties": {
    "name":"RAF Lakenheath",
    "city":"Lakenheath",
    "country":"United Kingdom",
    "IATA":"LKZ",
    "ICAO":"EGUL"
    }
  },
  {
    "type": "Feature",
    "geometry": {
       "type": "Point",
       "coordinates":  [ 0.486405998468399,52.36190032958984,33 ]
    },
    "properties": {
    "name":"RAF Mildenhall",
    "city":"Mildenhall",
    "country":"United Kingdom",
    "IATA":"MHZ",
    "ICAO":"EGUN"
    }
  },
  {
    "type": "Feature",
    "geometry": {
       "type": "Point",
       "coordinates":  [ 0.956264019012,52.1273002625,284 ]
    },
    "properties": {
    "name":"RAF Wattisham",
    "city":"Wattisham",
    "country":"United Kingdom",
    "IATA":"N/A",
    "ICAO":"EGUW"
    }
  },
  {
    "type": "Feature",
    "geometry": {
       "type": "Point",
       "coordinates":  [ -0.107832998037,52.3572006226,135 ]
    },
    "properties": {
    "name":"RAF Wyton",
    "city":"Wyton",
    "country":"United Kingdom",
    "IATA":"QUY",
    "ICAO":"EGUY"
    }
  },
  {
    "type": "Feature",
    "geometry": {
       "type": "Point",
       "coordinates":  [ -1.7900300025900002,51.6822013855,286 ]
    },
    "properties": {
    "name":"RAF Fairford",
    "city":"Fairford",
    "country":"United Kingdom",
    "IATA":"FFD",
    "ICAO":"EGVA"
    }
  },
  {
    "type": "Feature",
    "geometry": {
       "type": "Point",
       "coordinates":  [ -1.58362,51.75,288 ]
    },
    "properties": {
    "name":"RAF Brize Norton",
    "city":"Brize Norton",
    "country":"United Kingdom",
    "IATA":"BZZ",
    "ICAO":"EGVN"
    }
  },
  {
    "type": "Feature",
    "geometry": {
       "type": "Point",
       "coordinates":  [ -0.94282501936,51.2341003418,405 ]
    },
    "properties": {
    "name":"RAF Odiham",
    "city":"Odiham",
    "country":"United Kingdom",
    "IATA":"ODH",
    "ICAO":"EGVO"
    }
  },
  {
    "type": "Feature",
    "geometry": {
       "type": "Point",
       "coordinates":  [ -2.30558,52.639999,272 ]
    },
    "properties": {
    "name":"DCAE Cosford Air Base",
    "city":"Cosford",
    "country":"United Kingdom",
    "IATA":"N/A",
    "ICAO":"EGWC"
    }
  },
  {
    "type": "Feature",
    "geometry": {
       "type": "Point",
       "coordinates":  [ -0.418166995049,51.5530014038,124 ]
    },
    "properties": {
    "name":"RAF Northolt",
    "city":"Northolt",
    "country":"United Kingdom",
    "IATA":"NHT",
    "ICAO":"EGWU"
    }
  },
  {
    "type": "Feature",
    "geometry": {
       "type": "Point",
       "coordinates":  [ -0.166014000773,53.0929985046,25 ]
    },
    "properties": {
    "name":"RAF Coningsby",
    "city":"Coningsby",
    "country":"United Kingdom",
    "IATA":"QCY",
    "ICAO":"EGXC"
    }
  },
  {
    "type": "Feature",
    "geometry": {
       "type": "Point",
       "coordinates":  [ -1.42025005817,54.1371994019,117 ]
    },
    "properties": {
    "name":"RAF Dishforth",
    "city":"Dishforth",
    "country":"United Kingdom",
    "IATA":"N/A",
    "ICAO":"EGXD"
    }
  },
  {
    "type": "Feature",
    "geometry": {
       "type": "Point",
       "coordinates":  [ -1.5354,54.2924,132 ]
    },
    "properties": {
    "name":"Leeming Airport",
    "city":"Leeming",
    "country":"United Kingdom",
    "IATA":"N/A",
    "ICAO":"EGXE"
    }
  },
  {
    "type": "Feature",
    "geometry": {
       "type": "Point",
       "coordinates":  [ -1.1955,53.834301,29 ]
    },
    "properties": {
    "name":"Leeds East Airport",
    "city":"Church Fenton",
    "country":"United Kingdom",
    "IATA":"N/A",
    "ICAO":"EGXG"
    }
  },
  {
    "type": "Feature",
    "geometry": {
       "type": "Point",
       "coordinates":  [ 0.7729390263557434,52.34260177612305,174 ]
    },
    "properties": {
    "name":"RAF Honington",
    "city":"Honington",
    "country":"United Kingdom",
    "IATA":"BEQ",
    "ICAO":"EGXH"
    }
  },
  {
    "type": "Feature",
    "geometry": {
       "type": "Point",
       "coordinates":  [ -0.648769,52.735699,461 ]
    },
    "properties": {
    "name":"RAF Cottesmore",
    "city":"Cottesmore",
    "country":"United Kingdom",
    "IATA":"N/A",
    "ICAO":"EGXJ"
    }
  },
  {
    "type": "Feature",
    "geometry": {
       "type": "Point",
       "coordinates":  [ -0.550832986832,53.307800293,202 ]
    },
    "properties": {
    "name":"RAF Scampton",
    "city":"Scampton",
    "country":"United Kingdom",
    "IATA":"SQZ",
    "ICAO":"EGXP"
    }
  },
  {
    "type": "Feature",
    "geometry": {
       "type": "Point",
       "coordinates":  [ -0.476453,52.612598,273 ]
    },
    "properties": {
    "name":"RAF Wittering",
    "city":"Wittering",
    "country":"United Kingdom",
    "IATA":"N/A",
    "ICAO":"EGXT"
    }
  },
  {
    "type": "Feature",
    "geometry": {
       "type": "Point",
       "coordinates":  [ -1.2527500391,54.0489006042,53 ]
    },
    "properties": {
    "name":"RAF Linton-On-Ouse",
    "city":"Linton-on-ouse",
    "country":"United Kingdom",
    "IATA":"HRT",
    "ICAO":"EGXU"
    }
  },
  {
    "type": "Feature",
    "geometry": {
       "type": "Point",
       "coordinates":  [ -0.523810982704,53.1661987305,231 ]
    },
    "properties": {
    "name":"RAF Waddington",
    "city":"Waddington",
    "country":"United Kingdom",
    "IATA":"WTN",
    "ICAO":"EGXW"
    }
  },
  {
    "type": "Feature",
    "geometry": {
       "type": "Point",
       "coordinates":  [ -1.3820899725,54.2055015564,92 ]
    },
    "properties": {
    "name":"RAF Topcliffe",
    "city":"Topcliffe",
    "country":"United Kingdom",
    "IATA":"N/A",
    "ICAO":"EGXZ"
    }
  },
  {
    "type": "Feature",
    "geometry": {
       "type": "Point",
       "coordinates":  [ -0.48324200511,53.0303001404,218 ]
    },
    "properties": {
    "name":"RAF Cranwell",
    "city":"Cranwell",
    "country":"United Kingdom",
    "IATA":"N/A",
    "ICAO":"EGYD"
    }
  },
  {
    "type": "Feature",
    "geometry": {
       "type": "Point",
       "coordinates":  [ -0.561625003815,52.9622001648,367 ]
    },
    "properties": {
    "name":"RAF Barkston Heath",
    "city":"Barkston Heath",
    "country":"United Kingdom",
    "IATA":"N/A",
    "ICAO":"EGYE"
    }
  },
  {
    "type": "Feature",
    "geometry": {
       "type": "Point",
       "coordinates":  [ 0.550692,52.648395,75 ]
    },
    "properties": {
    "name":"RAF Marham",
    "city":"Marham",
    "country":"United Kingdom",
    "IATA":"KNF",
    "ICAO":"EGYM"
    }
  },
  {
    "type": "Feature",
    "geometry": {
       "type": "Point",
       "coordinates":  [ 4.76389,52.308601,-11 ]
    },
    "properties": {
    "name":"Amsterdam Airport Schiphol",
    "city":"Amsterdam",
    "country":"Netherlands",
    "IATA":"AMS",
    "ICAO":"EHAM"
    }
  },
  {
    "type": "Feature",
    "geometry": {
       "type": "Point",
       "coordinates":  [ 5.60139,51.255299,114 ]
    },
    "properties": {
    "name":"Budel Airfield Kempen",
    "city":"Weert",
    "country":"Netherlands",
    "IATA":"N/A",
    "ICAO":"EHBD"
    }
  },
  {
    "type": "Feature",
    "geometry": {
       "type": "Point",
       "coordinates":  [ 5.77014,50.911701,375 ]
    },
    "properties": {
    "name":"Maastricht Aachen Airport",
    "city":"Maastricht",
    "country":"Netherlands",
    "IATA":"MST",
    "ICAO":"EHBK"
    }
  },
  {
    "type": "Feature",
    "geometry": {
       "type": "Point",
       "coordinates":  [ 5.87306,52.0606,158 ]
    },
    "properties": {
    "name":"Deelen Air Base",
    "city":"Deelen",
    "country":"Netherlands",
    "IATA":"N/A",
    "ICAO":"EHDL"
    }
  },
  {
    "type": "Feature",
    "geometry": {
       "type": "Point",
       "coordinates":  [ 6.12972021103,53.1192016602,14 ]
    },
    "properties": {
    "name":"Drachten Airport",
    "city":"Drachten",
    "country":"Netherlands",
    "IATA":"N/A",
    "ICAO":"EHDR"
    }
  },
  {
    "type": "Feature",
    "geometry": {
       "type": "Point",
       "coordinates":  [ 5.37452983856,51.4500999451,74 ]
    },
    "properties": {
    "name":"Eindhoven Airport",
    "city":"Eindhoven",
    "country":"Netherlands",
    "IATA":"EIN",
    "ICAO":"EHEH"
    }
  },
  {
    "type": "Feature",
    "geometry": {
       "type": "Point",
       "coordinates":  [ 6.57944011688,53.1197013855,17 ]
    },
    "properties": {
    "name":"Eelde Airport",
    "city":"Groningen",
    "country":"Netherlands",
    "IATA":"GRQ",
    "ICAO":"EHGG"
    }
  },
  {
    "type": "Feature",
    "geometry": {
       "type": "Point",
       "coordinates":  [ 4.931829929351807,51.56740188598633,49 ]
    },
    "properties": {
    "name":"Gilze Rijen Air Base",
    "city":"Gilze-rijen",
    "country":"Netherlands",
    "IATA":"GLZ",
    "ICAO":"EHGR"
    }
  },
  {
    "type": "Feature",
    "geometry": {
       "type": "Point",
       "coordinates":  [ 4.780620098114014,52.92340087890625,3 ]
    },
    "properties": {
    "name":"De Kooy Airport",
    "city":"De Kooy",
    "country":"Netherlands",
    "IATA":"DHR",
    "ICAO":"EHKD"
    }
  },
  {
    "type": "Feature",
    "geometry": {
       "type": "Point",
       "coordinates":  [ 5.52722,52.4603,-13 ]
    },
    "properties": {
    "name":"Lelystad Airport",
    "city":"Lelystad",
    "country":"Netherlands",
    "IATA":"LEY",
    "ICAO":"EHLE"
    }
  },
  {
    "type": "Feature",
    "geometry": {
       "type": "Point",
       "coordinates":  [ 5.760560035705566,53.22859954833984,3 ]
    },
    "properties": {
    "name":"Leeuwarden Air Base",
    "city":"Leeuwarden",
    "country":"Netherlands",
    "IATA":"LWR",
    "ICAO":"EHLW"
    }
  },
  {
    "type": "Feature",
    "geometry": {
       "type": "Point",
       "coordinates":  [ 4.43722,51.956902,-15 ]
    },
    "properties": {
    "name":"Rotterdam The Hague Airport",
    "city":"Rotterdam",
    "country":"Netherlands",
    "IATA":"RTM",
    "ICAO":"EHRD"
    }
  },
  {
    "type": "Feature",
    "geometry": {
       "type": "Point",
       "coordinates":  [ 5.27618980408,52.1273002625,66 ]
    },
    "properties": {
    "name":"Soesterberg Air Base",
    "city":"Soesterberg",
    "country":"Netherlands",
    "IATA":"UTC",
    "ICAO":"EHSB"
    }
  },
  {
    "type": "Feature",
    "geometry": {
       "type": "Point",
       "coordinates":  [ 6.889167,52.275833,114 ]
    },
    "properties": {
    "name":"Twente Airport",
    "city":"Enschede",
    "country":"Netherlands",
    "IATA":"ENS",
    "ICAO":"EHTW"
    }
  },
  {
    "type": "Feature",
    "geometry": {
       "type": "Point",
       "coordinates":  [ 4.41794013977,52.1660995483,1 ]
    },
    "properties": {
    "name":"Valkenburg Naval Air Base",
    "city":"Valkenburg",
    "country":"Netherlands",
    "IATA":"LID",
    "ICAO":"EHVB"
    }
  },
  {
    "type": "Feature",
    "geometry": {
       "type": "Point",
       "coordinates":  [ 4.34203,51.4491,63 ]
    },
    "properties": {
    "name":"Woensdrecht Air Base",
    "city":"Woensdrecht",
    "country":"Netherlands",
    "IATA":"WOE",
    "ICAO":"EHWO"
    }
  },
  {
    "type": "Feature",
    "geometry": {
       "type": "Point",
       "coordinates":  [ -8.491109848022461,51.84130096435547,502 ]
    },
    "properties": {
    "name":"Cork Airport",
    "city":"Cork",
    "country":"Ireland",
    "IATA":"ORK",
    "ICAO":"EICK"
    }
  },
  {
    "type": "Feature",
    "geometry": {
       "type": "Point",
       "coordinates":  [ -8.941590309143066,53.300201416015625,81 ]
    },
    "properties": {
    "name":"Galway Airport",
    "city":"Galway",
    "country":"Ireland",
    "IATA":"GWY",
    "ICAO":"EICM"
    }
  },
  {
    "type": "Feature",
    "geometry": {
       "type": "Point",
       "coordinates":  [ -6.27007,53.421299,242 ]
    },
    "properties": {
    "name":"Dublin Airport",
    "city":"Dublin",
    "country":"Ireland",
    "IATA":"DUB",
    "ICAO":"EIDW"
    }
  },
  {
    "type": "Feature",
    "geometry": {
       "type": "Point",
       "coordinates":  [ -8.818490028381348,53.910301208496094,665 ]
    },
    "properties": {
    "name":"Ireland West Knock Airport",
    "city":"Connaught",
    "country":"Ireland",
    "IATA":"NOC",
    "ICAO":"EIKN"
    }
  },
  {
    "type": "Feature",
    "geometry": {
       "type": "Point",
       "coordinates":  [ -9.52377986907959,52.18090057373047,112 ]
    },
    "properties": {
    "name":"Kerry Airport",
    "city":"Kerry",
    "country":"Ireland",
    "IATA":"KIR",
    "ICAO":"EIKY"
    }
  },
  {
    "type": "Feature",
    "geometry": {
       "type": "Point",
       "coordinates":  [ -6.451330184940001,53.301700592,319 ]
    },
    "properties": {
    "name":"Casement Air Base",
    "city":"Casement",
    "country":"Ireland",
    "IATA":"N/A",
    "ICAO":"EIME"
    }
  },
  {
    "type": "Feature",
    "geometry": {
       "type": "Point",
       "coordinates":  [ -8.92482,52.702,46 ]
    },
    "properties": {
    "name":"Shannon Airport",
    "city":"Shannon",
    "country":"Ireland",
    "IATA":"SNN",
    "ICAO":"EINN"
    }
  },
  {
    "type": "Feature",
    "geometry": {
       "type": "Point",
       "coordinates":  [ -8.5992097854614,54.280200958252,11 ]
    },
    "properties": {
    "name":"Sligo Airport",
    "city":"Sligo",
    "country":"Ireland",
    "IATA":"SXL",
    "ICAO":"EISG"
    }
  },
  {
    "type": "Feature",
    "geometry": {
       "type": "Point",
       "coordinates":  [ -7.086959838867188,52.187198638916016,119 ]
    },
    "properties": {
    "name":"Waterford Airport",
    "city":"Waterford",
    "country":"Ireland",
    "IATA":"WAT",
    "ICAO":"EIWF"
    }
  },
  {
    "type": "Feature",
    "geometry": {
       "type": "Point",
       "coordinates":  [ 10.619000434899998,56.2999992371,82 ]
    },
    "properties": {
    "name":"Aarhus Airport",
    "city":"Aarhus",
    "country":"Denmark",
    "IATA":"AAR",
    "ICAO":"EKAH"
    }
  },
  {
    "type": "Feature",
    "geometry": {
       "type": "Point",
       "coordinates":  [ 9.15178012848,55.7402992249,247 ]
    },
    "properties": {
    "name":"Billund Airport",
    "city":"Billund",
    "country":"Denmark",
    "IATA":"BLL",
    "ICAO":"EKBI"
    }
  },
  {
    "type": "Feature",
    "geometry": {
       "type": "Point",
       "coordinates":  [ 12.656000137329,55.617900848389,17 ]
    },
    "properties": {
    "name":"Copenhagen Kastrup Airport",
    "city":"Copenhagen",
    "country":"Denmark",
    "IATA":"CPH",
    "ICAO":"EKCH"
    }
  },
  {
    "type": "Feature",
    "geometry": {
       "type": "Point",
       "coordinates":  [ 8.5534,55.525902,97 ]
    },
    "properties": {
    "name":"Esbjerg Airport",
    "city":"Esbjerg",
    "country":"Denmark",
    "IATA":"EBJ",
    "ICAO":"EKEB"
    }
  },
  {
    "type": "Feature",
    "geometry": {
       "type": "Point",
       "coordinates":  [ 12.382200241088867,55.94139862060547,97 ]
    },
    "properties": {
    "name":"Grønholt Hillerød Airport",
    "city":"Grønholt",
    "country":"Denmark",
    "IATA":"N/A",
    "ICAO":"EKGH"
    }
  },
  {
    "type": "Feature",
    "geometry": {
       "type": "Point",
       "coordinates":  [ 9.124629974365234,56.29750061035156,170 ]
    },
    "properties": {
    "name":"Karup Airport",
    "city":"Karup",
    "country":"Denmark",
    "IATA":"KRP",
    "ICAO":"EKKA"
    }
  },
  {
    "type": "Feature",
    "geometry": {
       "type": "Point",
       "coordinates":  [ 11.000100135803224,57.27719879150391,25 ]
    },
    "properties": {
    "name":"Læsø Airport",
    "city":"Læsø",
    "country":"Denmark",
    "IATA":"BYR",
    "ICAO":"EKLS"
    }
  },
  {
    "type": "Feature",
    "geometry": {
       "type": "Point",
       "coordinates":  [ 11.4401,54.699299,16 ]
    },
    "properties": {
    "name":"Lolland Falster Maribo Airport",
    "city":"Maribo",
    "country":"Denmark",
    "IATA":"MRW",
    "ICAO":"EKMB"
    }
  },
  {
    "type": "Feature",
    "geometry": {
       "type": "Point",
       "coordinates":  [ 10.330900192260742,55.47669982910156,56 ]
    },
    "properties": {
    "name":"Odense Airport",
    "city":"Odense",
    "country":"Denmark",
    "IATA":"ODE",
    "ICAO":"EKOD"
    }
  },
  {
    "type": "Feature",
    "geometry": {
       "type": "Point",
       "coordinates":  [ 9.279009819030762,54.87030029296875,88 ]
    },
    "properties": {
    "name":"Kruså-Padborg Airport",
    "city":"Kruså / Padborg",
    "country":"Denmark",
    "IATA":"N/A",
    "ICAO":"EKPB"
    }
  },
  {
    "type": "Feature",
    "geometry": {
       "type": "Point",
       "coordinates":  [ 12.131400108337402,55.58560180664063,146 ]
    },
    "properties": {
    "name":"Copenhagen Roskilde Airport",
    "city":"Copenhagen",
    "country":"Denmark",
    "IATA":"RKE",
    "ICAO":"EKRK"
    }
  },
  {
    "type": "Feature",
    "geometry": {
       "type": "Point",
       "coordinates":  [ 14.759599685668944,55.06330108642578,52 ]
    },
    "properties": {
    "name":"Bornholm Airport",
    "city":"Ronne",
    "country":"Denmark",
    "IATA":"RNN",
    "ICAO":"EKRN"
    }
  },
  {
    "type": "Feature",
    "geometry": {
       "type": "Point",
       "coordinates":  [ 9.791729927062988,54.96440124511719,24 ]
    },
    "properties": {
    "name":"Sønderborg Airport",
    "city":"Sønderborg",
    "country":"Denmark",
    "IATA":"SGD",
    "ICAO":"EKSB"
    }
  },
  {
    "type": "Feature",
    "geometry": {
       "type": "Point",
       "coordinates":  [ 9.26702,55.221048,141 ]
    },
    "properties": {
    "name":"Skrydstrup Air Base",
    "city":"Skrydstrup",
    "country":"Denmark",
    "IATA":"SKS",
    "ICAO":"EKSP"
    }
  },
  {
    "type": "Feature",
    "geometry": {
       "type": "Point",
       "coordinates":  [ 9.172980308532717,56.550201416015625,74 ]
    },
    "properties": {
    "name":"Skive Airport",
    "city":"Skive",
    "country":"Denmark",
    "IATA":"SQW",
    "ICAO":"EKSV"
    }
  },
  {
    "type": "Feature",
    "geometry": {
       "type": "Point",
       "coordinates":  [ 8.705220222473145,57.06880187988281,23 ]
    },
    "properties": {
    "name":"Thisted Airport",
    "city":"Thisted",
    "country":"Denmark",
    "IATA":"TED",
    "ICAO":"EKTS"
    }
  },
  {
    "type": "Feature",
    "geometry": {
       "type": "Point",
       "coordinates":  [ 9.33092,55.436298,143 ]
    },
    "properties": {
    "name":"Kolding Vamdrup Airfield",
    "city":"Kolding",
    "country":"Denmark",
    "IATA":"N/A",
    "ICAO":"EKVD"
    }
  },
  {
    "type": "Feature",
    "geometry": {
       "type": "Point",
       "coordinates":  [ 9.45861,56.846901,119 ]
    },
    "properties": {
    "name":"Vesthimmerlands Flyveplads",
    "city":"Vesthimmerland",
    "country":"Denmark",
    "IATA":"N/A",
    "ICAO":"EKVH"
    }
  },
  {
    "type": "Feature",
    "geometry": {
       "type": "Point",
       "coordinates":  [ 8.353910446166992,55.9901008605957,17 ]
    },
    "properties": {
    "name":"Stauning Airport",
    "city":"Stauning",
    "country":"Denmark",
    "IATA":"STA",
    "ICAO":"EKVJ"
    }
  },
  {
    "type": "Feature",
    "geometry": {
       "type": "Point",
       "coordinates":  [ 9.84924316406,57.0927589138,10 ]
    },
    "properties": {
    "name":"Aalborg Airport",
    "city":"Aalborg",
    "country":"Denmark",
    "IATA":"AAL",
    "ICAO":"EKYT"
    }
  },
  {
    "type": "Feature",
    "geometry": {
       "type": "Point",
       "coordinates":  [ 6.2044444,49.6233333,1234 ]
    },
    "properties": {
    "name":"Luxembourg-Findel International Airport",
    "city":"Luxemburg",
    "country":"Luxembourg",
    "IATA":"LUX",
    "ICAO":"ELLX"
    }
  },
  {
    "type": "Feature",
    "geometry": {
       "type": "Point",
       "coordinates":  [ 6.119699954986572,62.5625,69 ]
    },
    "properties": {
    "name":"Ålesund Airport",
    "city":"Ålesund",
    "country":"Norway",
    "IATA":"AES",
    "ICAO":"ENAL"
    }
  },
  {
    "type": "Feature",
    "geometry": {
       "type": "Point",
       "coordinates":  [ 16.144199371338,69.292503356934,43 ]
    },
    "properties": {
    "name":"Andøya Airport",
    "city":"Andøya",
    "country":"Norway",
    "IATA":"ANX",
    "ICAO":"ENAN"
    }
  },
  {
    "type": "Feature",
    "geometry": {
       "type": "Point",
       "coordinates":  [ 23.371700286865,69.976097106934,9 ]
    },
    "properties": {
    "name":"Alta Airport",
    "city":"Alta",
    "country":"Norway",
    "IATA":"ALF",
    "ICAO":"ENAT"
    }
  },
  {
    "type": "Feature",
    "geometry": {
       "type": "Point",
       "coordinates":  [ 6.501500129699707,60.63890075683594,300 ]
    },
    "properties": {
    "name":"Bømoen Airport",
    "city":"Voss",
    "country":"Norway",
    "IATA":"N/A",
    "ICAO":"ENBM"
    }
  },
  {
    "type": "Feature",
    "geometry": {
       "type": "Point",
       "coordinates":  [ 12.217499732971,65.461097717285,25 ]
    },
    "properties": {
    "name":"Brønnøysund Airport",
    "city":"Brønnøysund",
    "country":"Norway",
    "IATA":"BNN",
    "ICAO":"ENBN"
    }
  },
  {
    "type": "Feature",
    "geometry": {
       "type": "Point",
       "coordinates":  [ 14.365300178527832,67.26920318603516,42 ]
    },
    "properties": {
    "name":"Bodø Airport",
    "city":"Bodø",
    "country":"Norway",
    "IATA":"BOO",
    "ICAO":"ENBO"
    }
  },
  {
    "type": "Feature",
    "geometry": {
       "type": "Point",
       "coordinates":  [ 5.218140125,60.29339981,170 ]
    },
    "properties": {
    "name":"Bergen Airport Flesland",
    "city":"Bergen",
    "country":"Norway",
    "IATA":"BGO",
    "ICAO":"ENBR"
    }
  },
  {
    "type": "Feature",
    "geometry": {
       "type": "Point",
       "coordinates":  [ 29.691400527954,70.60050201416,490 ]
    },
    "properties": {
    "name":"Båtsfjord Airport",
    "city":"Båtsfjord",
    "country":"Norway",
    "IATA":"BJF",
    "ICAO":"ENBS"
    }
  },
  {
    "type": "Feature",
    "geometry": {
       "type": "Point",
       "coordinates":  [ 8.08537,58.204201,57 ]
    },
    "properties": {
    "name":"Kristiansand Airport",
    "city":"Kristiansand",
    "country":"Norway",
    "IATA":"KRS",
    "ICAO":"ENCN"
    }
  },
  {
    "type": "Feature",
    "geometry": {
       "type": "Point",
       "coordinates":  [ 8.518349647521973,60.41730117797852,2618 ]
    },
    "properties": {
    "name":"Geilo Airport Dagali",
    "city":"Geilo",
    "country":"Norway",
    "IATA":"DLD",
    "ICAO":"ENDI"
    }
  },
  {
    "type": "Feature",
    "geometry": {
       "type": "Point",
       "coordinates":  [ 18.540399551392,69.055801391602,252 ]
    },
    "properties": {
    "name":"Bardufoss Airport",
    "city":"Bardufoss",
    "country":"Norway",
    "IATA":"BDU",
    "ICAO":"ENDU"
    }
  },
  {
    "type": "Feature",
    "geometry": {
       "type": "Point",
       "coordinates":  [ 16.678100585938,68.491302490234,84 ]
    },
    "properties": {
    "name":"Harstad/Narvik Airport, Evenes",
    "city":"Harstad/Narvik",
    "country":"Norway",
    "IATA":"EVE",
    "ICAO":"ENEV"
    }
  },
  {
    "type": "Feature",
    "geometry": {
       "type": "Point",
       "coordinates":  [ 9.2880601882935,61.015598297119,2697 ]
    },
    "properties": {
    "name":"Leirin Airport",
    "city":"Fagernes",
    "country":"Norway",
    "IATA":"VDB",
    "ICAO":"ENFG"
    }
  },
  {
    "type": "Feature",
    "geometry": {
       "type": "Point",
       "coordinates":  [ 5.0247201919556,61.583599090576,37 ]
    },
    "properties": {
    "name":"Florø Airport",
    "city":"Florø",
    "country":"Norway",
    "IATA":"FRO",
    "ICAO":"ENFL"
    }
  },
  {
    "type": "Feature",
    "geometry": {
       "type": "Point",
       "coordinates":  [ 11.0502,60.121,681 ]
    },
    "properties": {
    "name":"Oslo Lufthavn",
    "city":"Oslo",
    "country":"Norway",
    "IATA":"OSL",
    "ICAO":"ENGM"
    }
  },
  {
    "type": "Feature",
    "geometry": {
       "type": "Point",
       "coordinates":  [ 5.2083601951599,59.34529876709,86 ]
    },
    "properties": {
    "name":"Haugesund Airport",
    "city":"Haugesund",
    "country":"Norway",
    "IATA":"HAU",
    "ICAO":"ENHD"
    }
  },
  {
    "type": "Feature",
    "geometry": {
       "type": "Point",
       "coordinates":  [ 22.139699935913,70.486701965332,21 ]
    },
    "properties": {
    "name":"Hasvik Airport",
    "city":"Hasvik",
    "country":"Norway",
    "IATA":"HAA",
    "ICAO":"ENHK"
    }
  },
  {
    "type": "Feature",
    "geometry": {
       "type": "Point",
       "coordinates":  [ 7.824520111084,63.111801147461,204 ]
    },
    "properties": {
    "name":"Kristiansund Airport (Kvernberget)",
    "city":"Kristiansund",
    "country":"Norway",
    "IATA":"KSU",
    "ICAO":"ENKB"
    }
  },